,carpark_number,address,car_park_type,type_of_parking_system,short_term_parking,free_parking,night_parking,car_park_decks,gantry_height,car_park_basement,lat,lng
0,A11,BLK 223/226/226A-226D ANG MO KIO ST 22,SURFACE CAR PARK,ELECTRONIC PARKING,WHOLE DAY,SUN & PH FR 7AM-10.30PM,YES,0,4.5,N,1.367035534,103.8381811
1,A12,BLK 229/230 ANG MO KIO ST 22,SURFACE CAR PARK,ELECTRONIC PARKING,WHOLE DAY,SUN & PH FR 7AM-10.30PM,YES,0,0.0,N,1.3685098269999998,103.8386753
2,A15,BLK 226E-226H ANG MO KIO ST 22,SURFACE CAR PARK,ELECTRONIC PARKING,WHOLE DAY,SUN & PH FR 7AM-10.30PM,YES,0,0.0,N,1.36696761,103.8404175
3,A20,BLK 304/307/319 ANG MO KIO ST 31,SURFACE CAR PARK,ELECTRONIC PARKING,WHOLE DAY,SUN & PH FR 7AM-10.30PM,YES,0,4.5,N,1.364943381,103.8484571
4,A25,BLK 330/337 ANG MO KIO AVE 8,SURFACE CAR PARK,ELECTRONIC PARKING,WHOLE DAY,SUN & PH FR 7AM-10.30PM,YES,0,4.5,N,1.362769307,103.8516275
5,A30,BLK 129/134 ANG MO KIO STREET 12,SURFACE CAR PARK,ELECTRONIC PARKING,WHOLE DAY,SUN & PH FR 7AM-10.30PM,YES,0,4.5,N,1.3709897469999999,103.84241899999999
6,A34,BLK 422/425 ANG MO KIO ST 42,SURFACE CAR PARK,ELECTRONIC PARKING,WHOLE DAY,SUN & PH FR 7AM-10.30PM,YES,0,0.0,N,1.3683564730000002,103.85166740000001
7,A37,BLK 446/449/453 ANG MO KIO ST 43,SURFACE CAR PARK,ELECTRONIC PARKING,WHOLE DAY,SUN & PH FR 7AM-10.30PM,YES,0,4.5,N,1.3681130680000002,103.8555566
8,A38,BLK 407/410/421 ANG MO KIO AVE 10,SURFACE CAR PARK,ELECTRONIC PARKING,WHOLE DAY,SUN & PH FR 7AM-10.30PM,YES,0,4.5,N,1.3639637059999998,103.85458840000001
9,A39,BLK 401/405 ANG MO KIO AVE 10,SURFACE CAR PARK,ELECTRONIC PARKING,WHOLE DAY,SUN & PH FR 7AM-10.30PM,YES,0,0.0,N,1.3611510219999998,103.8540722
10,A40,BLK 471/476 ANG MO KIO ST 44,SURFACE CAR PARK,ELECTRONIC PARKING,WHOLE DAY,SUN & PH FR 7AM-10.30PM,YES,0,9.99,N,1.362356151,103.8569821
11,A43,BLK 457/458/460 ANG MO KIO ST 44,SURFACE CAR PARK,ELECTRONIC PARKING,WHOLE DAY,SUN & PH FR 7AM-10.30PM,YES,0,0.0,N,1.365996736,103.8592673
12,A50,BLK 548/552/556 ANG MO KIO STREET 54,SURFACE CAR PARK,ELECTRONIC PARKING,WHOLE DAY,SUN & PH FR 7AM-10.30PM,YES,0,4.5,N,1.372522464,103.85760959999999
13,A60,BLK 540/546 ANG MO KIO ST 54,SURFACE CAR PARK,ELECTRONIC PARKING,WHOLE DAY,SUN & PH FR 7AM-10.30PM,YES,0,4.5,N,1.374464495,103.8559134
14,A65,BLK 558/560 ANG MO KIO STREET 54,SURFACE CAR PARK,ELECTRONIC PARKING,WHOLE DAY,SUN & PH FR 7AM-10.30PM,YES,0,4.5,N,1.371029159,103.8594172
15,A66,BLK 601/604/603 ANG MO KIO AVE 5,SURFACE CAR PARK,ELECTRONIC PARKING,WHOLE DAY,SUN & PH FR 7AM-10.30PM,YES,0,5.4,N,1.380544931,103.8356606
16,A67,BLK 605/612 ANG MO KIO AVE 4/5,SURFACE CAR PARK,ELECTRONIC PARKING,WHOLE DAY,SUN & PH FR 7AM-10.30PM,YES,0,0.0,N,1.3796863240000001,103.83780490000001
17,A68,BLK 620/624/626 ANG MO KIO ST 61,SURFACE CAR PARK,ELECTRONIC PARKING,WHOLE DAY,SUN & PH FR 7AM-10.30PM,YES,0,0.0,N,1.381897619,103.8398542
18,A69,BLK 623/625/627 ANG MO KIO ST 61,SURFACE CAR PARK,ELECTRONIC PARKING,WHOLE DAY,SUN & PH FR 7AM-10.30PM,YES,0,5.4,N,1.381641458,103.8419454
19,A70,BLK 629/626 ANG MO KIO AVE 4,SURFACE CAR PARK,ELECTRONIC PARKING,WHOLE DAY,SUN & PH FR 7AM-10.30PM,YES,0,9.99,N,1.380620641,103.8401072
20,A71,BLK 628/632 ANG MO KIO ST 61,SURFACE CAR PARK,ELECTRONIC PARKING,WHOLE DAY,SUN & PH FR 7AM-10.30PM,YES,0,5.4,N,1.380009094,103.84074190000001
21,A72,BLK 633/640 ANG MO KIO ST 61,SURFACE CAR PARK,ELECTRONIC PARKING,WHOLE DAY,SUN & PH FR 7AM-10.30PM,YES,0,5.4,N,1.3807609630000002,103.8435303
22,A81,BLK 170/172 ANG MO KIO ST 13,SURFACE CAR PARK,ELECTRONIC PARKING,WHOLE DAY,SUN & PH FR 7AM-10.30PM,YES,0,9.99,N,1.3743555530000002,103.8364788
23,A82,BLK 173/176 ANG MO KIO AVE 4,SURFACE CAR PARK,ELECTRONIC PARKING,WHOLE DAY,SUN & PH FR 7AM-10.30PM,YES,0,0.0,N,1.375674922,103.8363987
24,A85,BLK 340 ANG MO KIO ST 32,SURFACE CAR PARK,ELECTRONIC PARKING,7AM-10.30PM,SUN & PH FR 7AM-10.30PM,NO,0,0.0,N,1.365107378,103.84970940000001
25,A9,BLK 202/203 ANG MO KIO STREET 22,SURFACE CAR PARK,ELECTRONIC PARKING,WHOLE DAY,SUN & PH FR 7AM-10.30PM,YES,0,4.5,N,1.36807437,103.8443922
26,A98,BLK 259 ANG MO KIO AVE 2,SURFACE CAR PARK,ELECTRONIC PARKING,WHOLE DAY,SUN & PH FR 7AM-10.30PM,YES,0,0.0,N,1.369164311,103.8318542
27,ACB,BLK 270/271 ALBERT CENTRE BASEMENT CAR PARK,BASEMENT CAR PARK,ELECTRONIC PARKING,WHOLE DAY,NO,YES,1,1.8,Y,1.301063272,103.854118
28,ACM,BLK 98A ALJUNIED CRESCENT,MULTI-STOREY CAR PARK,ELECTRONIC PARKING,WHOLE DAY,SUN & PH FR 7AM-10.30PM,YES,5,2.1,N,1.32100429,103.8850609
29,AM16,BLK 256A ANG MO KIO STREET 21,MULTI-STOREY CAR PARK,ELECTRONIC PARKING,WHOLE DAY,SUN & PH FR 7AM-10.30PM,YES,2,2.15,N,1.370349801,103.8357183
30,AM18,BLK 308C ANG MO KIO AVE 1,MULTI-STOREY CAR PARK,ELECTRONIC PARKING,7AM-10.30PM,NO,NO,3,2.15,N,1.3655400130000002,103.8446194
31,AM20,BLK 309B ANG MO KIO ST 31,MULTI-STOREY CAR PARK,ELECTRONIC PARKING,WHOLE DAY,SUN & PH FR 7AM-10.30PM,YES,12,2.15,N,1.364697733,103.84608859999999
32,AM22,BLK 316B ANG MO KIO STREET 31,MULTI-STOREY CAR PARK,ELECTRONIC PARKING,WHOLE DAY,SUN & PH FR 7AM-10.30PM,YES,12,2.15,N,1.364588291,103.84765300000001
33,AM32,BLK 255A ANG MO KIO ST 21,MULTI-STOREY CAR PARK,ELECTRONIC PARKING,WHOLE DAY,NO,YES,2,2.15,N,1.3705325240000001,103.83437679999999
34,AM46,BLK 588 ANG MO KIO STREET 52,MULTI-STOREY CAR PARK,ELECTRONIC PARKING,WHOLE DAY,NO,YES,5,2.15,N,1.3721783230000002,103.85339640000001
35,AM79,BLK 596 ANG MO KIO STREEET 52,MULTI-STOREY CAR PARK,ELECTRONIC PARKING,WHOLE DAY,SUN & PH FR 7AM-10.30PM,YES,12,2.15,N,1.3723581919999999,103.85139670000001
36,AM80,BLK 130A ANG MO KIO ST 12,MULTI-STOREY CAR PARK,ELECTRONIC PARKING,WHOLE DAY,SUN & PH FR 7AM-10.30PM,YES,4,2.15,N,1.37064699,103.8418615
37,AM81,BLK 132A ANG MO KIO ST 12,MULTI-STOREY CAR PARK,ELECTRONIC PARKING,WHOLE DAY,SUN & PH FR 7AM-10.30PM,YES,4,2.15,N,1.3716392419999999,103.8419478
38,AM96,BLK 352A ANG MO KIO STREET 32,MULTI-STOREY CAR PARK,ELECTRONIC PARKING,WHOLE DAY,SUN & PH FR 7AM-10.30PM,YES,12,2.15,N,1.3640741490000001,103.85094040000001
39,AR5M,BLK 19A DOVER CRESCENT,MULTI-STOREY CAR PARK,ELECTRONIC PARKING,WHOLE DAY,SUN & PH FR 7AM-10.30PM,YES,12,2.15,N,1.307343527,103.78446329999998
40,AR9,BLK 20/22/23 DOVER CRESCENT,SURFACE CAR PARK,ELECTRONIC PARKING,7AM-10.30PM,SUN & PH FR 7AM-10.30PM,NO,0,0.0,N,1.307284363,103.7834396
41,B10,BLK 404/413 BEDOK NORTH AVENUE 3,SURFACE CAR PARK,ELECTRONIC PARKING,WHOLE DAY,SUN & PH FR 7AM-10.30PM,YES,0,4.5,N,1.329028331,103.9337077
42,B14,BLK 412/413 BEDOK NORTH AVENUE 2,SURFACE CAR PARK,ELECTRONIC PARKING,WHOLE DAY,SUN & PH FR 7AM-10.30PM,YES,0,4.5,N,1.329159093,103.93144509999999
43,B16,BLK 32/63 BEDOK SOUTH AVENUE 2,SURFACE CAR PARK,ELECTRONIC PARKING,WHOLE DAY,SUN & PH FR 7AM-10.30PM,YES,0,4.5,N,1.323501118,103.94055949999999
44,B17,BLK 52/57 NEW UPPER CHANGI ROAD,SURFACE CAR PARK,ELECTRONIC PARKING,WHOLE DAY,SUN & PH FR 7AM-10.30PM,YES,0,4.5,N,1.324217738,103.9418572
45,B20,BLK 67/73 BEDOK SOUTH ROAD,SURFACE CAR PARK,ELECTRONIC PARKING,WHOLE DAY,SUN & PH FR 7AM-10.30PM,YES,0,4.5,N,1.319799714,103.94342040000001
46,B30,BLK 119/123 BEDOK NORTH STREET 2,SURFACE CAR PARK,ELECTRONIC PARKING,WHOLE DAY,SUN & PH FR 7AM-10.30PM,YES,0,4.5,N,1.329942835,103.93875340000001
47,B31,BLK 124/129 BEDOK NORTH STREET 2,SURFACE CAR PARK,ELECTRONIC PARKING,WHOLE DAY,SUN & PH FR 7AM-10.30PM,YES,0,4.5,N,1.328501234,103.9388502
48,B32,BLK 130/132 BEDOK NORTH STREET 2,SURFACE CAR PARK,ELECTRONIC PARKING,WHOLE DAY,SUN & PH FR 7AM-10.30PM,YES,0,4.5,N,1.32741067,103.9367575
49,B33,BLK 131/133 BEDOK NORTH AVENUE 3,SURFACE CAR PARK,ELECTRONIC PARKING,WHOLE DAY,SUN & PH FR 7AM-10.30PM,YES,0,4.5,N,1.327240858,103.9358002
50,B34,BLK 134/136 BEDOK NORTH AVENUE 3,SURFACE CAR PARK,ELECTRONIC PARKING,WHOLE DAY,SUN & PH FR 7AM-10.30PM,YES,0,4.5,N,1.328312294,103.9356734
51,B35,BLK 137/140 BEDOK NORTH AVENUE 3,SURFACE CAR PARK,ELECTRONIC PARKING,WHOLE DAY,SUN & PH FR 7AM-10.30PM,YES,0,4.5,N,1.329058097,103.9351762
52,B42,BLK 509/511 BEDOK NORTH STREET 3,SURFACE CAR PARK,ELECTRONIC PARKING,WHOLE DAY,NO,YES,0,0.0,N,1.332451791,103.93082120000001
53,B45,BLK 537/539 BEDOK NORTH STREET 3,SURFACE CAR PARK,ELECTRONIC PARKING,WHOLE DAY,NO,YES,0,4.5,N,1.331679984,103.92542900000001
54,B51,BLK 611/616 BEDOK RESERVOIR ROAD,SURFACE CAR PARK,ELECTRONIC PARKING,WHOLE DAY,SUN & PH FR 7AM-10.30PM,YES,0,4.5,N,1.3321465000000001,103.91639620000001
55,B52,BLK 617/624 BEDOK RESERVOIR ROAD,SURFACE CAR PARK,ELECTRONIC PARKING,WHOLE DAY,SUN & PH FR 7AM-10.30PM,YES,0,4.5,N,1.33390918,103.9178942
56,B53,BLK 625/629 BEDOK RESERVOIR ROAD,SURFACE CAR PARK,ELECTRONIC PARKING,7AM-10.30PM,SUN & PH FR 7AM-10.30PM,NO,0,4.5,N,1.3342514890000001,103.9151772
57,B6,BLK 204/209 NEW UPPER CHANGI ROAD,SURFACE CAR PARK,ELECTRONIC PARKING,WHOLE DAY,NO,YES,0,4.5,N,1.326330497,103.9303395
58,B63,BLK 739/745 BEDOK RESERVOIR ROAD,SURFACE CAR PARK,ELECTRONIC PARKING,WHOLE DAY,SUN & PH FR 7AM-10.30PM,YES,0,4.5,N,1.3381537270000001,103.9226165
59,B65,BLK 155/172 BEDOK SOUTH ROAD/AVE 3,SURFACE CAR PARK,ELECTRONIC PARKING,WHOLE DAY,SUN & PH FR 7AM-10.30PM,YES,0,5.4,N,1.32003291,103.9456593
60,B66,BLK 637A BEDOK RESERVOIR ROAD,MULTI-STOREY CAR PARK,ELECTRONIC PARKING,WHOLE DAY,SUN & PH FR 7AM-10.30PM,YES,12,1.9,N,1.330548155,103.9043396
61,B7,BLK 211/218 BEDOK NORTH STREET 1,SURFACE CAR PARK,ELECTRONIC PARKING,WHOLE DAY,NO,YES,0,4.5,N,1.32513124,103.9319217
62,B70,BLK 201 BEDOK NORTH ST 1,SURFACE CAR PARK,ELECTRONIC PARKING,WHOLE DAY,NO,YES,0,0.0,N,1.326289845,103.9279955
63,B71,BLK 29C CHAI CHEE AVENUE,MULTI-STOREY CAR PARK,ELECTRONIC PARKING,WHOLE DAY,SUN & PH FR 7AM-10.30PM,YES,10,2.0,N,1.324293889,103.9243004
64,B75,BLK 613C BEDOK RESERVOIR ROAD,MULTI-STOREY CAR PARK,ELECTRONIC PARKING,WHOLE DAY,SUN & PH FR 7AM-10.30PM,YES,12,2.15,N,1.333038103,103.9175262
65,B7A,BLK 216/218 BEDOK NORTH ST 1,SURFACE CAR PARK,ELECTRONIC PARKING,WHOLE DAY,NO,YES,0,2.15,N,1.327131692,103.934037
66,B8,BLK 201/203 BEDOK NORTH STREET 1,SURFACE CAR PARK,ELECTRONIC PARKING,WHOLE DAY,NO,YES,0,4.5,N,1.325881496,103.9282762
67,B80,BLK 739A BEDOK RESERVOIR ROAD,MULTI-STOREY CAR PARK,ELECTRONIC PARKING,WHOLE DAY,SUN & PH FR 7AM-10.30PM,YES,6,2.15,N,1.338268304,103.9233606
68,B84,BLK 215A BEDOK CENTRAL,MULTI-STOREY CAR PARK,ELECTRONIC PARKING,WHOLE DAY,NO,YES,12,2.15,N,1.32622611,103.93420479999999
69,B88,BLK 34A BED0K SOUTH AVE 2,MULTI-STOREY CAR PARK,ELECTRONIC PARKING,WHOLE DAY,SUN & PH FR 7AM-10.30PM,YES,2,2.15,N,1.322250932,103.938324
70,B9,BLK 402/403 BEDOK NORTH AVENUE 3,SURFACE CAR PARK,ELECTRONIC PARKING,WHOLE DAY,SUN & PH FR 7AM-10.30PM,YES,0,4.5,N,1.330172709,103.9338152
71,B90,BLK 35A BEDOK SOUTH AVE 2,MULTI-STOREY CAR PARK,ELECTRONIC PARKING,WHOLE DAY,SUN & PH FR 7AM-10.30PM,YES,2,2.15,N,1.322520623,103.9396488
72,BBM1,BLK 188A BUKIT BATOK WEST AVE 6,MULTI-STOREY CAR PARK,ELECTRONIC PARKING,WHOLE DAY,SUN & PH FR 7AM-10.30PM,YES,10,2.0,N,1.3464366540000001,103.7453823
73,BBM3,BLK 289H BUKIT BATOK STREET 25,MULTI-STOREY CAR PARK,ELECTRONIC PARKING,WHOLE DAY,SUN & PH FR 7AM-10.30PM,YES,12,2.15,N,1.344506283,103.7599178
74,BBM5,BLK 290H BUKIT BATOK STREET 24,MULTI-STOREY CAR PARK,ELECTRONIC PARKING,WHOLE DAY,SUN & PH FR 7AM-10.30PM,YES,4,2.0,N,1.343242885,103.75793359999999
75,BBM7,BLK 154A BUKIT BATOK WEST AVE 8,MULTI-STOREY CAR PARK,ELECTRONIC PARKING,WHOLE DAY,SUN & PH FR 7AM-10.30PM,YES,8,2.0,N,1.3473553280000001,103.7436955
76,BBM8,BLK 622A BUKIT BATOK CENTRAL,MULTI-STOREY CAR PARK,ELECTRONIC PARKING,WHOLE DAY,NO,YES,6,2.15,N,1.349969285,103.7485105
77,BBM9,BLK 395A BUKIT BATOK WEST AVE 5,MULTI-STOREY CAR PARK,ELECTRONIC PARKING,WHOLE DAY,SUN & PH FR 7AM-10.30PM,YES,16,2.15,N,1.365830635,103.7517718
78,BE12,BLK 187-197 BISHAN STREET 13,SURFACE CAR PARK,ELECTRONIC PARKING,WHOLE DAY,NO,YES,0,4.5,N,1.3500233169999998,103.8509698
79,BE23,BLK 514 BISHAN STREET 13,MULTI-STOREY CAR PARK,ELECTRONIC PARKING,WHOLE DAY,NO,YES,2,1.8,N,1.3500959069999998,103.8497629
80,BE36,BLK 278-281 BISHAN STREET 24,SURFACE CAR PARK,ELECTRONIC PARKING,WHOLE DAY,NO,YES,0,4.5,N,1.35749517,103.8445354
81,BE37,BLK 282 BISHAN STREET 22,MULTI-STOREY CAR PARK,ELECTRONIC PARKING,WHOLE DAY,SUN & PH FR 7AM-10.30PM,YES,2,1.95,N,1.3580079409999999,103.8444208
82,BE38,BLK 283/284 BISHAN STREET 22,SURFACE CAR PARK,ELECTRONIC PARKING,WHOLE DAY,NO,YES,0,4.5,N,1.35889863,103.8445665
83,BE39,BLK 263A BISHAN STREET 22,MULTI-STOREY CAR PARK,ELECTRONIC PARKING,7AM-10.30PM,SUN & PH FR 7AM-10.30PM,NO,10,1.9,N,1.3591964019999998,103.8419713
84,BE40,BLK 268A BISHAN STREET 24,MULTI-STOREY CAR PARK,ELECTRONIC PARKING,WHOLE DAY,SUN & PH FR 7AM-10.30PM,YES,10,1.9,N,1.3573111780000002,103.8426402
85,BE42,BLK 290A BISHAN STREET 24,MULTI-STOREY CAR PARK,ELECTRONIC PARKING,WHOLE DAY,SUN & PH FR 7AM-10.30PM,YES,12,2.15,N,1.355561781,103.8445481
86,BE45,BLK 275 BISHAN ST 24,MULTI-STOREY CAR PARK,ELECTRONIC PARKING,7AM-10.30PM,NO,NO,6,2.15,N,1.356308344,103.8436738
87,BE7,BLK 139-144 BISHAN STREET 12,SURFACE CAR PARK,ELECTRONIC PARKING,7AM-7PM,SUN & PH FR 7AM-10.30PM,NO,0,4.5,N,1.345004699,103.8530229
88,BE8,"BLK 145-150A, 151 BISHAN STREET 11",SURFACE CAR PARK,ELECTRONIC PARKING,WHOLE DAY,SUN & PH FR 7AM-10.30PM,YES,0,4.5,N,1.344436392,103.85531479999999
89,BH1,BLK 1 THOMSON ROAD,SURFACE CAR PARK,ELECTRONIC PARKING,WHOLE DAY,SUN & PH FR 7AM-10.30PM,YES,0,0.0,N,1.324991365,103.84245990000001
90,BH2,BLK 2 BALESTIER ROAD,SURFACE CAR PARK,ELECTRONIC PARKING,WHOLE DAY,SUN & PH FR 7AM-10.30PM,YES,0,0.0,N,1.326045973,103.84285820000001
91,BJ1,BLK 130-140 CASHEW ROAD,SURFACE CAR PARK,ELECTRONIC PARKING,7AM-10.30PM,SUN & PH FR 7AM-10.30PM,NO,0,0.0,N,1.37395668,103.769323
92,BJ10,BLK 234-241 BUKIT PANJANG RING ROAD,SURFACE CAR PARK,ELECTRONIC PARKING,7AM-10.30PM,SUN & PH FR 7AM-10.30PM,NO,0,4.5,N,1.378939287,103.77065520000001
93,BJ11,BLK 242-245 BUKIT PANJANG RING ROAD,SURFACE CAR PARK,ELECTRONIC PARKING,7AM-10.30PM,SUN & PH FR 7AM-10.30PM,NO,0,0.0,N,1.380763687,103.77187990000002
94,BJ12,BLK 246-255 BANGKIT ROAD,SURFACE CAR PARK,ELECTRONIC PARKING,7AM-10.30PM,SUN & PH FR 7AM-10.30PM,NO,0,0.0,N,1.3802532630000002,103.7744886
95,BJ17,BLK 401A FAJAR ROAD,MULTI-STOREY CAR PARK,ELECTRONIC PARKING,WHOLE DAY,SUN & PH FR 7AM-10.30PM,YES,5,1.9,N,1.381250233,103.7689457
96,BJ18,BLK 401-408 FAJAR ROAD,SURFACE CAR PARK,ELECTRONIC PARKING,WHOLE DAY,SUN & PH FR 7AM-10.30PM,YES,0,5.4,N,1.38096997,103.7681115
97,BJ2,BLK 141-151 GANGSA/PETIR ROAD,SURFACE CAR PARK,ELECTRONIC PARKING,NO,SUN & PH FR 7AM-10.30PM,YES,0,4.5,N,1.376135031,103.7666613
98,BJ28,BLK 170A LOMPANG ROAD,MULTI-STOREY CAR PARK,ELECTRONIC PARKING,WHOLE DAY,NO,YES,12,2.15,N,1.378924834,103.765546
99,BJ3,BLK 101/129 GANGSA ROAD/PENDING ROAD,SURFACE CAR PARK,ELECTRONIC PARKING,WHOLE DAY,SUN & PH FR 7AM-10.30PM,YES,0,5.4,N,1.377310194,103.76937729999999
100,BJ30,BLK 510A JELAPANG ROAD,MULTI-STOREY CAR PARK,ELECTRONIC PARKING,WHOLE DAY,SUN & PH FR 7AM-10.30PM,YES,12,2.15,N,1.3870292819999999,103.7689793
101,BJ31,BLK 513A JELAPANG ROAD,MULTI-STOREY CAR PARK,ELECTRONIC PARKING,7AM-10.30PM,SUN & PH FR 7AM-10.30PM,NO,2,2.15,N,1.387898151,103.7675184
102,BJ32,BLK 518A JELAPANG ROAD,MULTI-STOREY CAR PARK,ELECTRONIC PARKING,WHOLE DAY,SUN & PH FR 7AM-10.30PM,YES,12,2.15,N,1.386557416,103.76684759999999
103,BJ33,BLK 234A BUKIT PANJANG RING ROAD,MULTI-STOREY CAR PARK,ELECTRONIC PARKING,WHOLE DAY,SUN & PH FR 7AM-10.30PM,YES,12,2.15,N,1.3791195019999998,103.77201109999999
104,BJ34,BLK 517A JELAPANG ROAD,MULTI-STOREY CAR PARK,ELECTRONIC PARKING,WHOLE DAY,SUN & PH FR 7AM-10.30PM,YES,2,2.15,N,1.38779606,103.7664901
105,BJ35,BLK 521A JELAPANG ROAD,MULTI-STOREY CAR PARK,ELECTRONIC PARKING,WHOLE DAY,SUN & PH FR 7AM-10.30PM,YES,2,2.15,N,1.387024333,103.7658722
106,BJ36,BLK 525A JELAPANG ROAD,MULTI-STOREY CAR PARK,ELECTRONIC PARKING,WHOLE DAY,SUN & PH FR 7AM-10.30PM,YES,2,2.15,N,1.386262892,103.7652959
107,BJ37,BLK 529A JELAPANG ROAD,MULTI-STOREY CAR PARK,ELECTRONIC PARKING,WHOLE DAY,SUN & PH FR 7AM-10.30PM,YES,12,2.15,N,1.38537581,103.76466070000001
108,BJ38,BLK 533A BUKIT PANJANG RING ROAD,MULTI-STOREY CAR PARK,ELECTRONIC PARKING,WHOLE DAY,SUN & PH FR 7AM-10.30PM,YES,7,2.15,N,1.385136691,103.76342659999999
109,BJ39,BLK 537A BUKIT PANJANG RING ROAD,MULTI-STOREY CAR PARK,ELECTRONIC PARKING,WHOLE DAY,SUN & PH FR 7AM-10.30PM,YES,7,2.15,N,1.384231798,103.7628601
110,BJ40,BLK 541A BUKIT PANJANG RING ROAD,MULTI-STOREY CAR PARK,ELECTRONIC PARKING,WHOLE DAY,SUN & PH FR 7AM-10.30PM,YES,11,2.15,N,1.3828257880000001,103.76290159999999
111,BJ41,BLK 152A GANGSA ROAD,MULTI-STOREY CAR PARK,ELECTRONIC PARKING,WHOLE DAY,SUN & PH FR 7AM-10.30PM,YES,12,2.15,N,1.37551205,103.7654545
112,BJ42,BLK 163A GANGSA ROAD,MULTI-STOREY CAR PARK,ELECTRONIC PARKING,WHOLE DAY,SUN & PH FR 7AM-10.30PM,YES,12,2.15,N,1.3769212780000002,103.7642864
113,BJ43,BLK 603A SENJA ROAD,MULTI-STOREY CAR PARK,ELECTRONIC PARKING,WHOLE DAY,SUN & PH FR 7AM-10.30PM,YES,12,2.15,N,1.3817204459999999,103.7616776
114,BJ45,BLK 180A LOMPANG ROAD,MULTI-STOREY CAR PARK,ELECTRONIC PARKING,WHOLE DAY,NO,YES,8,2.15,N,1.378687961,103.7650088
115,BJ48,BLK 651A SENJA LINK,MULTI-STOREY CAR PARK,ELECTRONIC PARKING,WHOLE DAY,SUN & PH FR 7AM-10.30PM,YES,6,2.15,N,1.38718579,103.76460300000001
116,BJ49,BLK 611A/613A/615A/616A BUKIT PANJANG RING ROAD/SENJA ROAD,MULTI-STOREY CAR PARK,ELECTRONIC PARKING,WHOLE DAY,SUN & PH FR 7AM-10.30PM,YES,6,2.15,N,1.38489746,103.7614868
117,BJ51,BLK 181A JELEBU ROAD,MULTI-STOREY CAR PARK,ELECTRONIC PARKING,WHOLE DAY,NO,YES,12,2.15,N,1.379398409,103.7634643
118,BJ52,BLK 185A JELEBU ROAD,MULTI-STOREY CAR PARK,ELECTRONIC PARKING,WHOLE DAY,NO,YES,12,2.15,N,1.379113361,103.7626379
119,BJ55,BLK 625A SENJA ROAD,MULTI-STOREY CAR PARK,ELECTRONIC PARKING,WHOLE DAY,SUN & PH FR 7AM-10.30PM,YES,13,2.15,N,1.386282945,103.760777
120,BJ56,BLK 629A SENJA ROAD,MULTI-STOREY CAR PARK,ELECTRONIC PARKING,WHOLE DAY,SUN & PH FR 7AM-10.30PM,YES,14,2.15,N,1.3858912159999999,103.7589498
121,BJ65,BLK 632 SENJA ROAD,MULTI-STOREY CAR PARK,ELECTRONIC PARKING,NO,SUN & PH FR 7AM-10.30PM,YES,9,2.15,N,1.3847041569999998,103.75876140000001
122,BKE7,BLK 678 PERUMAL ROAD,MULTI-STOREY CAR PARK,ELECTRONIC PARKING,WHOLE DAY,SUN & PH FR 7AM-10.30PM,YES,11,1.9,N,1.312659416,103.8553227
123,BL10,BLK 188/191 BOON LAY DRIVE,SURFACE CAR PARK,ELECTRONIC PARKING,WHOLE DAY,SUN & PH FR 7AM-10.30PM,YES,0,9.99,N,1.3437618409999998,103.7114251
124,BL13,BLK 198/206 BOON LAY DRIVE,SURFACE CAR PARK,ELECTRONIC PARKING,WHOLE DAY,SUN & PH FR 7AM-10.30PM,YES,0,4.5,N,1.344692588,103.7150352
125,BL18,BLK 208A BOON LAY PLACE,MULTI-STOREY CAR PARK,ELECTRONIC PARKING,WHOLE DAY,SUN & PH FR 7AM-10.30PM,YES,10,2.15,N,1.3464884519999998,103.7144373
126,BL19,BLK 212A BOON LAY PLACE,MULTI-STOREY CAR PARK,ELECTRONIC PARKING,WHOLE DAY,SUN & PH FR 7AM-10.30PM,YES,10,2.15,N,1.348777281,103.7133457
127,BL3,BLK 174/179 BOON LAY DRIVE,SURFACE CAR PARK,ELECTRONIC PARKING,WHOLE DAY,SUN & PH FR 7AM-10.30PM,YES,0,9.99,N,1.346874708,103.70923459999999
128,BL8,BLK 221 BOON LAY PLACE,SURFACE CAR PARK,ELECTRONIC PARKING,WHOLE DAY,SUN & PH FR 7AM-10.30PM,YES,0,4.5,N,1.345425134,103.71339090000001
129,BM1,BLK 28 JALAN BUKIT MERAH,SURFACE CAR PARK,ELECTRONIC PARKING,WHOLE DAY,NO,YES,0,0.0,N,1.286273508,103.8096692
130,BM2,BLK 28 HOY FATT ROAD,SURFACE CAR PARK,ELECTRONIC PARKING,WHOLE DAY,NO,YES,0,2.1,N,1.2868507679999999,103.8099531
131,BM26,BLK 1/3/5 JALAN BUKIT MERAH,SURFACE CAR PARK,ELECTRONIC PARKING,WHOLE DAY,NO,YES,0,4.5,N,1.287279708,103.8074079
132,BM28,"BLK 117, 161 BUKIT MERAH CENTRAL",SURFACE CAR PARK,ELECTRONIC PARKING,7AM-10.30PM,NO,NO,0,9.99,N,1.283999331,103.81582320000001
133,BM29,BLK 163 BUKIT MERAH CENTRAL,BASEMENT CAR PARK,ELECTRONIC PARKING,WHOLE DAY,NO,YES,1,2.0,Y,1.283634706,103.81709920000002
134,BM3,BLK 49/50 HOY FATT ROAD,SURFACE CAR PARK,ELECTRONIC PARKING,WHOLE DAY,NO,YES,0,4.5,N,1.287707766,103.8115278
135,BM30,BLK 164/165 BUKIT MERAH CENTRAL,SURFACE CAR PARK,ELECTRONIC PARKING,7AM-10.30PM,NO,NO,0,9.99,N,1.283234333,103.8167334
136,BM5,BLKS 8/10 JALAN RUMAH TINGGI,SURFACE CAR PARK,ELECTRONIC PARKING,7AM-7PM,NO,NO,0,4.5,N,1.288431556,103.8076195
137,BM9,BLK 58/59 LENGKOK BAHRU,SURFACE CAR PARK,ELECTRONIC PARKING,WHOLE DAY,SUN & PH FR 7AM-10.30PM,YES,0,4.5,N,1.289097999,103.814358
138,BMVM,BLK 126A BUKIT MERAH VIEW,MULTI-STOREY CAR PARK,ELECTRONIC PARKING,WHOLE DAY,SUN & PH FR 7AM-10.30PM,YES,11,1.9,N,1.284626289,103.8231292
139,BP1,BLK 101/109 BUKIT PURMEI ROAD,SURFACE CAR PARK,ELECTRONIC PARKING,WHOLE DAY,SUN & PH FR 7AM-10.30PM,YES,0,4.5,N,1.2727949459999999,103.82486999999999
140,BP2,BLK 110/115 BUKIT PURMEI ROAD,SURFACE CAR PARK,ELECTRONIC PARKING,7AM-10.30PM,SUN & PH FR 7AM-10.30PM,NO,0,1.9,N,1.274091691,103.8270043
141,BR5,BLK 74/75 WHAMPOA DRIVE,SURFACE CAR PARK,ELECTRONIC PARKING,WHOLE DAY,SUN & PH FR 7AM-10.30PM,YES,0,2.9,N,1.324908971,103.8581906
142,BRB1,BLK 665 BUFFALO ROAD BASEMENT CAR PARK,BASEMENT CAR PARK,ELECTRONIC PARKING,WHOLE DAY,NO,YES,1,1.8,Y,1.306066749,103.85058599999999
143,BRBL,BLK 665 BUFFALO ROAD LOADING/UNLOADING BAYS,SURFACE CAR PARK,ELECTRONIC PARKING,NO,NO,NO,0,0.0,N,1.3065968940000001,103.8507075
144,BRM3,BLK 98A WHAMPOA DRIVE,MULTI-STOREY CAR PARK,ELECTRONIC PARKING,WHOLE DAY,SUN & PH FR 7AM-10.30PM,YES,7,2.0,N,1.3214861740000001,103.8547025
145,BRM4,BLK 85A WHAMPOA DRIVE,MULTI-STOREY CAR PARK,ELECTRONIC PARKING,WHOLE DAY,SUN & PH FR 7AM-10.30PM,YES,2,2.1,N,1.322730325,103.85607399999999
146,BTM,BLK 2B BOON TIONG ROAD,MULTI-STOREY CAR PARK,ELECTRONIC PARKING,WHOLE DAY,SUN & PH FR 7AM-10.30PM,YES,12,2.15,N,1.286783924,103.8332897
147,BTM2,BLK 8C BOON TIONG RD,MULTI-STOREY CAR PARK,ELECTRONIC PARKING,WHOLE DAY,SUN & PH FR 7AM-10.30PM,YES,12,2.15,N,1.286963082,103.82964100000001
148,BWM,BLK 2A JLN BUKIT MERAH,MULTI-STOREY CAR PARK,ELECTRONIC PARKING,WHOLE DAY,NO,YES,7,2.15,N,1.286875302,103.80665450000001
149,C10,"BLK 339,341,344-345,371-381 CLEMENTI AVENUE 5",SURFACE CAR PARK,ELECTRONIC PARKING,WHOLE DAY,SUN & PH FR 7AM-10.30PM,YES,0,4.5,N,1.318463207,103.7689629
150,C12,"BLK 301-302,305-308 CLEMENTI AVENUE 4",SURFACE CAR PARK,ELECTRONIC PARKING,WHOLE DAY,SUN & PH FR 7AM-10.30PM,YES,0,4.5,N,1.321789844,103.7661061
151,C13M,BLK 309A CLEMENTI AVE 4,MULTI-STOREY CAR PARK,ELECTRONIC PARKING,WHOLE DAY,SUN & PH FR 7AM-10.30PM,YES,7,2.15,N,1.320563371,103.76617979999999
152,C14M,BLK 318A CLEMENTI AVE 4,MULTI-STOREY CAR PARK,ELECTRONIC PARKING,WHOLE DAY,SUN & PH FR 7AM-10.30PM,YES,2,2.15,N,1.317392375,103.7651855
153,C17,"BLK 442-444,442A CLEMENTI AVE 3",SURFACE CAR PARK,ELECTRONIC PARKING,WHOLE DAY,SUN & PH FR 7AM-10.30PM,YES,0,0.0,N,1.313857729,103.7638966
154,C20,BLK 449-451 CLEMENTI AVE 3,SURFACE CAR PARK,ELECTRONIC PARKING,WHOLE DAY,SUN & PH FR 7AM-10.30PM,YES,0,4.5,N,1.313347821,103.76526170000001
155,C20M,BLK 462A CLEMENTI AVENUE 3,MULTI-STOREY CAR PARK,ELECTRONIC PARKING,WHOLE DAY,SUN & PH FR 7AM-10.30PM,YES,18,2.15,N,1.311504255,103.76565079999999
156,C21M,BLK 455A CLEMENTI AVE 3,MULTI-STOREY CAR PARK,ELECTRONIC PARKING,WHOLE DAY,SUN & PH FR 7AM-10.30PM,YES,12,2.15,N,1.311661194,103.7665267
157,C22M,BLK 109A CLEMENTI ST 11,MULTI-STOREY CAR PARK,ELECTRONIC PARKING,WHOLE DAY,SUN & PH FR 7AM-10.30PM,YES,6,1.9,N,1.321746371,103.7702155
158,C24,BLK 110/118 CLEMENTI STREET 13,SURFACE CAR PARK,ELECTRONIC PARKING,7AM-10.30PM,SUN & PH FR 7AM-10.30PM,NO,0,4.5,N,1.324197621,103.7712867
159,C25,BLK 101-104 CLEMENTI STREET 14,SURFACE CAR PARK,ELECTRONIC PARKING,7AM-10.30PM,SUN & PH FR 7AM-10.30PM,NO,0,4.5,N,1.3223927229999999,103.76905550000001
160,C26,BLK 105-107 CLEMENTI STREET 12,SURFACE CAR PARK,ELECTRONIC PARKING,WHOLE DAY,SUN & PH FR 7AM-10.30PM,YES,0,4.3,N,1.3225877609999999,103.7699291
161,C27,BLK 108/109 CLEMENTI STREET 11,SURFACE CAR PARK,ELECTRONIC PARKING,WHOLE DAY,SUN & PH FR 7AM-10.30PM,YES,0,4.3,N,1.322242263,103.7705128
162,C32,BLK 514-519 WEST COAST ROAD,SURFACE CAR PARK,ELECTRONIC PARKING,WHOLE DAY,SUN & PH FR 7AM-10.30PM,YES,0,4.5,N,1.308625559,103.7590812
163,C3M,BLK 416A CLEMENTI AVE 1,MULTI-STOREY CAR PARK,ELECTRONIC PARKING,WHOLE DAY,SUN & PH FR 7AM-10.30PM,YES,2,2.15,N,1.309813588,103.770131
164,C4M,BLK 413A COMMONWEALTH AVENUE WEST,MULTI-STOREY CAR PARK,ELECTRONIC PARKING,WHOLE DAY,NO,YES,9,2.0,N,1.3114801090000001,103.7705025
165,C5,"BLK 358-360,362-363,366-367 CLEMENTI AVE 2",SURFACE CAR PARK,ELECTRONIC PARKING,WHOLE DAY,SUN & PH FR 7AM-10.30PM,YES,0,0.0,N,1.3131026590000001,103.76957390000001
166,C6,BLK 328-334 CLEMENTI AVE 2,SURFACE CAR PARK,ELECTRONIC PARKING,WHOLE DAY,SUN & PH FR 7AM-10.30PM,YES,0,4.5,N,1.314488114,103.7676912
167,C7,BLK 349-355 CLEMENTI AVE 2,SURFACE CAR PARK,ELECTRONIC PARKING,WHOLE DAY,SUN & PH FR 7AM-10.30PM,YES,0,4.5,N,1.314842819,103.7705785
168,C8,BLK 335/338 CLEMENTI AVE 2,SURFACE CAR PARK,ELECTRONIC PARKING,WHOLE DAY,SUN & PH FR 7AM-10.30PM,YES,0,4.5,N,1.316674657,103.7686311
169,C9,BLK 340/342/343/346-348 CLEMENTI AVE 5,SURFACE CAR PARK,ELECTRONIC PARKING,WHOLE DAY,SUN & PH FR 7AM-10.30PM,YES,0,5.4,N,1.317649249,103.7703123
170,CC5,BLK 27 CHAI CHEE ROAD,SURFACE CAR PARK,ELECTRONIC PARKING,WHOLE DAY,NO,YES,0,0.0,N,1.324822461,103.9234007
171,CC6,BLK 25-27 CHAI CHEE ROAD,SURFACE CAR PARK,ELECTRONIC PARKING,WHOLE DAY,NO,YES,0,4.5,N,1.323513814,103.92356459999999
172,CC7,BLK 30/40 CHAI CHEE AVENUE,SURFACE CAR PARK,ELECTRONIC PARKING,WHOLE DAY,SUN & PH FR 7AM-10.30PM,YES,0,4.5,N,1.3252462059999999,103.9256873
173,CK12,BLK 409/413 CHOA CHU KANG AVE 3,SURFACE CAR PARK,ELECTRONIC PARKING,7AM-10.30PM,SUN & PH FR 7AM-10.30PM,NO,0,4.5,N,1.381286117,103.7418157
174,CK13,BLK 414-420 CHOA CHU KANG AVENUE 4,SURFACE CAR PARK,ELECTRONIC PARKING,7AM-10.30PM,SUN & PH FR 7AM-10.30PM,NO,0,4.5,N,1.382916724,103.7420406
175,CK16,BLK 401/408 CHOA CHU KANG AVE 3,SURFACE CAR PARK,ELECTRONIC PARKING,7AM-10.30PM,SUN & PH FR 7AM-10.30PM,NO,0,0.0,N,1.379628911,103.7392211
176,CK17,BLK 421/428 CHOA CHU KANG AVENUE 4,SURFACE CAR PARK,ELECTRONIC PARKING,7AM-10.30PM,SUN & PH FR 7AM-10.30PM,NO,0,0.0,N,1.382073045,103.740691
177,CK19,BLK 133/134 TECK WHYE LANE,SURFACE CAR PARK,ELECTRONIC PARKING,7AM-7PM,SUN & PH FR 7AM-10.30PM,NO,0,0.0,N,1.380482819,103.7513306
178,CK20,"BLK 429, 438-441 CHOA CHU KANG AVENUE 4",SURFACE CAR PARK,ELECTRONIC PARKING,WHOLE DAY,SUN & PH FR 7AM-10.30PM,YES,0,0.0,N,1.383382965,103.7401337
179,CK22,BLK 343A CHOA CHU KANG LOOP,MULTI-STOREY CAR PARK,ELECTRONIC PARKING,WHOLE DAY,NO,YES,11,1.9,N,1.3838438769999999,103.74594300000001
180,CK23,BLK 430-437 CHOA CHU KANG AVENUE 4,SURFACE CAR PARK,ELECTRONIC PARKING,WHOLE DAY,SUN & PH FR 7AM-10.30PM,YES,0,0.0,N,1.384144351,103.7415069
181,CK24,BLK 350-351 CHOA CHU KANG CENTRAL,SURFACE CAR PARK,ELECTRONIC PARKING,7AM-10.30PM,NO,NO,0,0.0,N,1.3833261630000002,103.7433099
182,CK25,BLK 352-355 CHOA CHU KANG CENTRAL,SURFACE CAR PARK,ELECTRONIC PARKING,7AM-10.30PM,NO,NO,0,0.0,N,1.382289998,103.74374379999999
183,CK28,BLK 276A CHOA CHU KANG AVENUE 2,MULTI-STOREY CAR PARK,ELECTRONIC PARKING,WHOLE DAY,SUN & PH FR 7AM-10.30PM,YES,10,2.0,N,1.3800848,103.74417170000001
184,CK29,BLK 276/277 CHOA CHU KANG AVENUE 2,SURFACE CAR PARK,ELECTRONIC PARKING,7AM-10.30PM,SUN & PH FR 7AM-10.30PM,NO,0,0.0,N,1.3797457119999998,103.7441108
185,CK3,BLK 118/124 TECK WHYE LANE,SURFACE CAR PARK,ELECTRONIC PARKING,NO,SUN & PH FR 7AM-10.30PM,YES,0,0.0,N,1.3786059240000001,103.7500625
186,CK30,BLK 248/250 CHOA CHU KANG AVENUE 2,SURFACE CAR PARK,ELECTRONIC PARKING,WHOLE DAY,SUN & PH FR 7AM-10.30PM,YES,0,0.0,N,1.3790288769999999,103.7453811
187,CK31,BLK 251A CHOA CHU KANG AVENUE 2,MULTI-STOREY CAR PARK,ELECTRONIC PARKING,WHOLE DAY,SUN & PH FR 7AM-10.30PM,YES,9,2.0,N,1.378750233,103.74493840000001
188,CK32,BLK 253A CHOA CHU KANG AVE 1,MULTI-STOREY CAR PARK,ELECTRONIC PARKING,WHOLE DAY,SUN & PH FR 7AM-10.30PM,YES,5,2.0,N,1.377394775,103.7439627
189,CK33,BLK 502A CHOA CHU KANG STREET 51,MULTI-STOREY CAR PARK,ELECTRONIC PARKING,WHOLE DAY,SUN & PH FR 7AM-10.30PM,YES,7,1.9,N,1.388697686,103.74295140000001
190,CK34,BLK 511A CHOA CHU KANG STREET 51,MULTI-STOREY CAR PARK,ELECTRONIC PARKING,WHOLE DAY,SUN & PH FR 7AM-10.30PM,YES,9,2.0,N,1.3885772459999999,103.741097
191,CK36,BLK 527A CHOA CHU KANG STREET 51,MULTI-STOREY CAR PARK,ELECTRONIC PARKING,WHOLE DAY,SUN & PH FR 7AM-10.30PM,YES,9,1.9,N,1.3922859019999998,103.7410873
192,CK37,BLK 552A CHOA CHU KANG STREET 52,MULTI-STOREY CAR PARK,ELECTRONIC PARKING,WHOLE DAY,SUN & PH FR 7AM-10.30PM,YES,10,1.9,N,1.394052995,103.74222979999999
193,CK38,BLK 541A CHOA CHU KANG STREET 52,MULTI-STOREY CAR PARK,ELECTRONIC PARKING,WHOLE DAY,SUN & PH FR 7AM-10.30PM,YES,10,1.9,N,1.393017938,103.74482579999999
194,CK39,BLK 559A CHOA CHU KANG NORTH 6,MULTI-STOREY CAR PARK,ELECTRONIC PARKING,7AM-10.30PM,SUN & PH FR 7AM-10.30PM,NO,11,2.0,N,1.396147253,103.74427779999999
195,CK3A,BLK 118A TECK WHYE LANE,MULTI-STOREY CAR PARK,ELECTRONIC PARKING,WHOLE DAY,SUN & PH FR 7AM-10.30PM,YES,12,2.15,N,1.37949253,103.74998029999999
196,CK4,"BLK 135-138,141,142 & 145 TECK WHYE LANE/AVE",SURFACE CAR PARK,ELECTRONIC PARKING,7AM-10.30PM,SUN & PH FR 7AM-10.30PM,NO,0,1.8,N,1.380143703,103.7516624
197,CK40,BLK 567A CHOA CHU KANG STREET 52,MULTI-STOREY CAR PARK,ELECTRONIC PARKING,WHOLE DAY,SUN & PH FR 7AM-10.30PM,YES,11,1.9,N,1.3953807619999998,103.7461474
198,CK41,BLK 708A CHOA CHU KANG STREET 53,MULTI-STOREY CAR PARK,ELECTRONIC PARKING,WHOLE DAY,SUN & PH FR 7AM-10.30PM,YES,11,2.0,N,1.39095742,103.74645699999999
199,CK42,BLK 754A CHOA CHU KANG NORTH 5,MULTI-STOREY CAR PARK,ELECTRONIC PARKING,WHOLE DAY,SUN & PH FR 7AM-10.30PM,YES,11,1.95,N,1.3927690419999998,103.7467304
200,CK44,BLK 762A CHOA CHU KANG NTH 5,MULTI-STOREY CAR PARK,ELECTRONIC PARKING,WHOLE DAY,SUN & PH FR 7AM-10.30PM,YES,10,2.0,N,1.392588835,103.74913670000001
201,CK45,BLK 771A CHOA CHU KANG ST 54,MULTI-STOREY CAR PARK,ELECTRONIC PARKING,WHOLE DAY,SUN & PH FR 7AM-10.30PM,YES,10,2.0,N,1.394517941,103.7499668
202,CK46,BLK 792A CHOA CHU KANG NTH 6,MULTI-STOREY CAR PARK,ELECTRONIC PARKING,WHOLE DAY,SUN & PH FR 7AM-10.30PM,YES,10,2.0,N,1.39526631,103.7495321
203,CK47,BLK 787A CHOA CHU KANG DRIVE,MULTI-STOREY CAR PARK,ELECTRONIC PARKING,WHOLE DAY,SUN & PH FR 7AM-10.30PM,YES,10,2.0,N,1.39523945,103.7476994
204,CK48,BLK 604A CHOA CHU KANG ST 62,MULTI-STOREY CAR PARK,ELECTRONIC PARKING,WHOLE DAY,SUN & PH FR 7AM-10.30PM,YES,10,2.0,N,1.3973745219999998,103.7452218
205,CK49,BLK 610A CHOA CHU KANG ST 62,MULTI-STOREY CAR PARK,ELECTRONIC PARKING,WHOLE DAY,SUN & PH FR 7AM-10.30PM,YES,9,2.0,N,1.39874473,103.743535
206,CK50,BLK 611A CHOA CHU KANG ST 62,MULTI-STOREY CAR PARK,ELECTRONIC PARKING,WHOLE DAY,SUN & PH FR 7AM-10.30PM,YES,9,2.0,N,1.400411957,103.74378490000001
207,CK51,BLK 621A CHOA CHU KANG NORTH 7,MULTI-STOREY CAR PARK,ELECTRONIC PARKING,WHOLE DAY,NO,YES,10,2.0,N,1.3996421890000001,103.7475813
208,CK52,BLK 659A/660A/661A CHOA CHU KANG CRESCENT,MULTI-STOREY CAR PARK,ELECTRONIC PARKING,WHOLE DAY,SUN & PH FR 7AM-10.30PM,YES,6,2.15,N,1.40065903,103.7502364
209,CK55,BLK 631-637 & 636A CHOA CHU KANG NORTH 6,COVERED CAR PARK,ELECTRONIC PARKING,7AM-10.30PM,SUN & PH FR 7AM-10.30PM,NO,0,2.15,N,1.3971123380000001,103.748509
210,CK60,BLK 683 CHOA CHU KANG CRESCENT,MULTI-STOREY CAR PARK,ELECTRONIC PARKING,WHOLE DAY,SUN & PH FR 7AM-10.30PM,YES,12,2.15,N,1.404294434,103.7458738
211,CK61,BLK 686 CHOA CHU KANG CRESCENT,MULTI-STOREY CAR PARK,ELECTRONIC PARKING,WHOLE DAY,SUN & PH FR 7AM-10.30PM,YES,13,2.15,N,1.40408942,103.7489176
212,CK7,BLK 135A TECK WHYE LANE,MULTI-STOREY CAR PARK,ELECTRONIC PARKING,WHOLE DAY,SUN & PH FR 7AM-10.30PM,YES,10,1.8,N,1.3802822590000001,103.7519605
213,CK8,BLK 201-221 CHOA CHU KANG CENTRAL,SURFACE CAR PARK,ELECTRONIC PARKING,7AM-10.30PM,SUN & PH FR 7AM-10.30PM,NO,0,4.5,N,1.382086079,103.7471057
214,CK8A,BLK 203A CHOA CHU KANG AVE 1/CENTRAL,MULTI-STOREY CAR PARK,ELECTRONIC PARKING,WHOLE DAY,SUN & PH FR 7AM-10.30PM,YES,12,2.15,N,1.3812186069999999,103.7489786
215,CKM1,BLK 429A CHOA CHU KANG AVENUE 4,MULTI-STOREY CAR PARK,ELECTRONIC PARKING,WHOLE DAY,SUN & PH FR 7AM-10.30PM,YES,10,2.0,N,1.383596356,103.7408248
216,CKT1,BLK BETWEEN 404 & 426 CHOA CHU KANG AVENUE 1/4,SURFACE CAR PARK,ELECTRONIC PARKING,WHOLE DAY,NO,YES,0,0.0,N,1.380315086,103.73858440000001
217,CR2,BLK 3/4 BEACH ROAD,SURFACE CAR PARK,ELECTRONIC PARKING,7AM-10.30PM,SUN & PH FR 7AM-10.30PM,NO,0,0.0,N,1.30468354,103.8656582
218,CR29,BLK 29/30 KELANTAN LANE,SURFACE CAR PARK,ELECTRONIC PARKING,WHOLE DAY,SUN & PH FR 7AM-10.30PM,YES,0,4.5,N,1.3057837829999999,103.85679329999999
219,CR3,BLK 9 NORTH BRIDGE ROAD,SURFACE CAR PARK,ELECTRONIC PARKING,7AM-10.30PM,SUN & PH FR 7AM-10.30PM,NO,0,4.5,N,1.305068654,103.8643248
220,CR30,BLK 639/640 ROWELL COURT,SURFACE CAR PARK,ELECTRONIC PARKING,7AM-10.30PM,NO,NO,0,4.5,N,1.307600179,103.854941
221,CR31,BLK 632/633/635 VEERASAMY ROAD,SURFACE CAR PARK,ELECTRONIC PARKING,7AM-7PM,NO,NO,0,4.5,N,1.306249745,103.8546982
222,CR7,BLK 464/463 CRAWFORD LANE,SURFACE CAR PARK,ELECTRONIC PARKING,NO,SUN & PH FR 7AM-10.30PM,YES,0,4.5,N,1.305505881,103.86233929999999
223,CY,BLK 269/269A/269B CHENG YAN COURT CAR PARK,SURFACE CAR PARK,ELECTRONIC PARKING,7AM-10.30PM,NO,NO,0,0.0,N,1.300626028,103.85366490000001
224,EPM,BLK 6A EVERTON ROAD,MULTI-STOREY CAR PARK,ELECTRONIC PARKING,WHOLE DAY,SUN & PH FR 7AM-10.30PM,YES,9,2.15,N,1.2761844359999999,103.8389082
225,FR2C,BLK 3/4 QUEEN'S ROAD,COVERED CAR PARK,ELECTRONIC PARKING,WHOLE DAY,NO,YES,0,2.4,N,1.318278391,103.80771259999999
226,FR3M,BLK 8A EMPRESS ROAD,MULTI-STOREY CAR PARK,ELECTRONIC PARKING,WHOLE DAY,NO,YES,12,2.15,N,1.316694831,103.80621059999999
227,FR4M,BLK 6A FARRER ROAD,MULTI-STOREY CAR PARK,ELECTRONIC PARKING,WHOLE DAY,NO,YES,3,2.15,N,1.316875727,103.8075345
228,GBM,BLK 60A GEYLANG BAHRU,MULTI-STOREY CAR PARK,ELECTRONIC PARKING,WHOLE DAY,SUN & PH FR 7AM-10.30PM,YES,12,2.15,N,1.322772391,103.8686337
229,GE1A,BLK 99-106/111-112 ALJUNIED CRESCENT,SURFACE CAR PARK,ELECTRONIC PARKING,WHOLE DAY,SUN & PH FR 7AM-10.30PM,YES,0,0.0,N,1.319887489,103.8834378
230,GE1F,BLK 107-108 ALJUNIED CRESCENT,SURFACE CAR PARK,ELECTRONIC PARKING,WHOLE DAY,SUN & PH FR 7AM-10.30PM,YES,0,0.0,N,1.319209948,103.8842356
231,GE1G,BLK 95 & 113 ALJUNIED CRESCENT,SURFACE CAR PARK,ELECTRONIC PARKING,7AM-10.30PM,SUN & PH FR 7AM-10.30PM,NO,0,0.0,N,1.320962409,103.8863088
232,GE2,BLK 120 TO 123 GEYLANG EAST CENTRAL,SURFACE CAR PARK,ELECTRONIC PARKING,WHOLE DAY,SUN & PH FR 7AM-10.30PM,YES,0,5.4,N,1.317945422,103.8848394
233,GE3,BLK 124 TO 128 GEYLANG EAST AVE 1,SURFACE CAR PARK,ELECTRONIC PARKING,WHOLE DAY,SUN & PH FR 7AM-10.30PM,YES,0,0.0,N,1.317500992,103.88736329999999
234,GE5,BLK 129-134 GEYLANG EAST AVE 1/2,SURFACE CAR PARK,ELECTRONIC PARKING,WHOLE DAY,SUN & PH FR 7AM-10.30PM,YES,0,4.5,N,1.31654978,103.88756529999999
235,GM1A,BLK 2A GHIM MOH ROAD,MULTI-STOREY CAR PARK,ELECTRONIC PARKING,WHOLE DAY,SUN & PH FR 7AM-10.30PM,YES,2,2.15,N,1.312554633,103.7869456
236,HE12,BLK 78/81 REDHILL LANE,SURFACE CAR PARK,ELECTRONIC PARKING,WHOLE DAY,SUN & PH FR 7AM-10.30PM,YES,0,4.5,N,1.288210023,103.8186506
237,HE3,BLK 116/117 BUKIT MERAH VIEW,SURFACE CAR PARK,ELECTRONIC PARKING,WHOLE DAY,SUN & PH FR 7AM-10.30PM,YES,0,0.0,N,1.284719003,103.82171170000001
238,HG10,BLK 101-108 HOUGANG AVENUE 1,SURFACE CAR PARK,ELECTRONIC PARKING,WHOLE DAY,NO,YES,0,4.5,N,1.354547713,103.8904836
239,HG11,BLK 301-319 HOUGANG AVENUE 5,SURFACE CAR PARK,ELECTRONIC PARKING,WHOLE DAY,SUN & PH FR 7AM-10.30PM,YES,0,0.0,N,1.365959085,103.8949804
240,HG22,BLK 154-157 HOUGANG STREET 11,SURFACE CAR PARK,ELECTRONIC PARKING,7AM-10.30PM,SUN & PH FR 7AM-10.30PM,NO,0,4.5,N,1.3524734569999999,103.8804324
241,HG41,BLK 633-642 & 647-648 HOUGANG AVENUE 8,SURFACE CAR PARK,ELECTRONIC PARKING,WHOLE DAY,SUN & PH FR 7AM-10.30PM,YES,0,4.5,N,1.37127612,103.8793501
242,HG43,BLK 668-680 HOUGANG AVENUE 8,SURFACE CAR PARK,ELECTRONIC PARKING,WHOLE DAY,SUN & PH FR 7AM-10.30PM,YES,0,9.99,N,1.3721131169999998,103.8843042
243,HG44,BLK 681-684 HOUGANG AVENUES 4/8,SURFACE CAR PARK,ELECTRONIC PARKING,WHOLE DAY,NO,YES,0,9.99,N,1.37364879,103.8863297
244,HG64,BLK 682-684 HOUGANG STREET 61,SURFACE CAR PARK,ELECTRONIC PARKING,WHOLE DAY,NO,YES,0,0.0,N,1.374341253,103.88629759999999
245,HLM,BLK 533A HONG LIM MSCP,MULTI-STOREY CAR PARK,ELECTRONIC PARKING,WHOLE DAY,NO,YES,11,1.9,N,1.284852235,103.8455194
246,J1,BLK 101/107 JURONG EAST ST 13,SURFACE CAR PARK,ELECTRONIC PARKING,WHOLE DAY,NO,YES,0,5.4,N,1.336429723,103.7380983
247,J10,BLK 246/249 JURONG EAST ST 24,SURFACE CAR PARK,ELECTRONIC PARKING,WHOLE DAY,SUN & PH FR 7AM-10.30PM,YES,0,4.5,N,1.342016683,103.7400937
248,J11,BLK 250/251 JURONG EAST ST 24,SURFACE CAR PARK,ELECTRONIC PARKING,WHOLE DAY,SUN & PH FR 7AM-10.30PM,YES,0,0.0,N,1.3429196669999999,103.7399377
249,J2,BLK 108/110 JURONG EAST ST 13,SURFACE CAR PARK,ELECTRONIC PARKING,WHOLE DAY,SUN & PH FR 7AM-10.30PM,YES,0,9.99,N,1.33860776,103.7367713
250,J27,BLK 521/524 JURONG WEST STREET 52,SURFACE CAR PARK,ELECTRONIC PARKING,WHOLE DAY,SUN & PH FR 7AM-10.30PM,YES,0,4.5,N,1.346887336,103.7166694
251,J3,BLK 111/116 JURONG EAST ST 13,SURFACE CAR PARK,ELECTRONIC PARKING,WHOLE DAY,SUN & PH FR 7AM-10.30PM,YES,0,4.5,N,1.339494837,103.7354848
252,J32,BLK 515/517 JURONG WEST STREET 52,SURFACE CAR PARK,ELECTRONIC PARKING,WHOLE DAY,SUN & PH FR 7AM-10.30PM,YES,0,4.5,N,1.345806661,103.72047490000001
253,J33,BLK 518/520 JURONG WEST STREET 52,SURFACE CAR PARK,ELECTRONIC PARKING,WHOLE DAY,SUN & PH FR 7AM-10.30PM,YES,0,4.5,N,1.34577449,103.71787990000001
254,J34,BLK 513/514 JURONG WEST STREET 52,SURFACE CAR PARK,ELECTRONIC PARKING,WHOLE DAY,SUN & PH FR 7AM-10.30PM,YES,0,4.5,N,1.347067663,103.72008570000001
255,J36,BLK 543/551 JURONG WEST STREET 42,SURFACE CAR PARK,ELECTRONIC PARKING,WHOLE DAY,SUN & PH FR 7AM-10.30PM,YES,0,9.99,N,1.35217192,103.71545640000001
256,J37,BLK 537/542 JURONG WEST AVENUE 1,SURFACE CAR PARK,ELECTRONIC PARKING,WHOLE DAY,SUN & PH FR 7AM-10.30PM,YES,0,4.5,N,1.3512959619999998,103.7158018
257,J38,BLK 505/508 JURONG WEST STREET 52,SURFACE CAR PARK,ELECTRONIC PARKING,WHOLE DAY,NO,YES,0,4.5,N,1.349118094,103.7185855
258,J39,BLK 456-461 JURONG WEST STREET 41,SURFACE CAR PARK,ELECTRONIC PARKING,WHOLE DAY,SUN & PH FR 7AM-10.30PM,YES,0,4.5,N,1.350157499,103.7213475
259,J4,BLK 201/206 JURONG EAST ST 21,SURFACE CAR PARK,ELECTRONIC PARKING,WHOLE DAY,NO,YES,0,4.5,N,1.337530169,103.74190259999999
260,J40,BLK 462-467 JURONG WEST STREET 41,SURFACE CAR PARK,ELECTRONIC PARKING,WHOLE DAY,SUN & PH FR 7AM-10.30PM,YES,0,4.5,N,1.3500297319999999,103.72287840000001
261,J41,BLK 468-473 JURONG WEST STREET 41,SURFACE CAR PARK,ELECTRONIC PARKING,WHOLE DAY,SUN & PH FR 7AM-10.30PM,YES,0,4.5,N,1.3482894559999998,103.7220323
262,J43,BLK 474-477 JURONG WEST STREET 41,SURFACE CAR PARK,ELECTRONIC PARKING,WHOLE DAY,SUN & PH FR 7AM-10.30PM,YES,0,4.5,N,1.347924854,103.7252685
263,J45,BLK 484-491 JURONG WEST AVENUE 1,SURFACE CAR PARK,ELECTRONIC PARKING,WHOLE DAY,SUN & PH FR 7AM-10.30PM,YES,0,0.0,N,1.348985181,103.72678540000001
264,J46,BLK 501/504 JURONG WEST STREET 51,SURFACE CAR PARK,ELECTRONIC PARKING,WHOLE DAY,NO,YES,0,9.99,N,1.349754137,103.71905840000001
265,J48,BLK 441/455 JURONG WEST AVE 1/ST 42,SURFACE CAR PARK,ELECTRONIC PARKING,WHOLE DAY,SUN & PH FR 7AM-10.30PM,YES,0,4.5,N,1.3521727669999999,103.7184799
266,J49,BLK 552/559 JURONG WEST STREET 42,SURFACE CAR PARK,ELECTRONIC PARKING,WHOLE DAY,SUN & PH FR 7AM-10.30PM,YES,0,9.99,N,1.353455799,103.7189495
267,J50,BLK 401/408 JURONG WEST STREET 42,SURFACE CAR PARK,ELECTRONIC PARKING,7AM-10.30PM,SUN & PH FR 7AM-10.30PM,NO,0,4.5,N,1.353707209,103.7225209
268,J51,BLK 409/416 JURONG WEST STREET 42,SURFACE CAR PARK,ELECTRONIC PARKING,WHOLE DAY,SUN & PH FR 7AM-10.30PM,YES,0,9.99,N,1.353556074,103.7246295
269,J52,BLK 423/440 JURONG WEST AVE 1/ST 42,SURFACE CAR PARK,ELECTRONIC PARKING,WHOLE DAY,SUN & PH FR 7AM-10.30PM,YES,0,9.99,N,1.3514364019999998,103.7245942
270,J53,BLK 417/422 JURONG WEST STREET 42,SURFACE CAR PARK,ELECTRONIC PARKING,WHOLE DAY,SUN & PH FR 7AM-10.30PM,YES,0,4.5,N,1.35074095,103.7267264
271,J54,BLK 492-496 JURONG WEST STREET 41,SURFACE CAR PARK,ELECTRONIC PARKING,WHOLE DAY,SUN & PH FR 7AM-10.30PM,YES,0,4.5,N,1.349926571,103.7245099
272,J55,BLK 497-498 JURONG WEST STREET 41,SURFACE CAR PARK,ELECTRONIC PARKING,WHOLE DAY,SUN & PH FR 7AM-10.30PM,YES,0,4.5,N,1.348637315,103.72429090000001
273,J56,BLK 130 JURONG GATEWAY ROAD,SURFACE CAR PARK,ELECTRONIC PARKING,WHOLE DAY,NO,YES,0,9.99,N,1.334892647,103.7393111
274,J57,BLK 131/134 JURONG GATEWAY ROAD,SURFACE CAR PARK,ELECTRONIC PARKING,WHOLE DAY,NO,YES,0,9.99,N,1.333976117,103.7391199
275,J57L,BLK 131 JURONG GATEWAY ROAD,SURFACE CAR PARK,ELECTRONIC PARKING,NO,NO,NO,0,9.99,N,1.334467592,103.739858
276,J60L,BLK 505 JURONG WEST ST 52,SURFACE CAR PARK,ELECTRONIC PARKING,NO,NO,NO,0,4.5,N,1.349754615,103.7178723
277,J60M,505A JURONG WEST ST 52,MULTI-STOREY CAR PARK,ELECTRONIC PARKING,WHOLE DAY,NO,YES,13,2.15,N,1.3493712969999998,103.7178978
278,J61,BLK 912/932 JURONG WEST STREET 92,SURFACE CAR PARK,ELECTRONIC PARKING,WHOLE DAY,SUN & PH FR 7AM-10.30PM,YES,0,9.99,N,1.34007678,103.6884249
279,J62,BLK 902/908 JURONG WEST STREET 91,SURFACE CAR PARK,ELECTRONIC PARKING,WHOLE DAY,SUN & PH FR 7AM-10.30PM,YES,0,9.99,N,1.340889782,103.68540759999999
280,J62M,BLK 901 JURONG WEST STREET 91,MULTI-STOREY CAR PARK,ELECTRONIC PARKING,WHOLE DAY,SUN & PH FR 7AM-10.30PM,YES,5,1.9,N,1.339873028,103.6865554
281,J63,BLK 909/911 JURONG WEST STREET 91,SURFACE CAR PARK,ELECTRONIC PARKING,WHOLE DAY,SUN & PH FR 7AM-10.30PM,YES,0,9.99,N,1.341779263,103.6864428
282,J65,BLK 933-953 JURONG WEST STREET 91,SURFACE CAR PARK,ELECTRONIC PARKING,WHOLE DAY,SUN & PH FR 7AM-10.30PM,YES,0,9.99,N,1.342770487,103.6892958
283,J69,BLK 974/980 JURONG WEST STREET 93,SURFACE CAR PARK,ELECTRONIC PARKING,WHOLE DAY,SUN & PH FR 7AM-10.30PM,YES,0,4.0,N,1.339687397,103.6936407
284,J70,BLK 835/838 JURONG WEST STREET 81,SURFACE CAR PARK,ELECTRONIC PARKING,WHOLE DAY,SUN & PH FR 7AM-10.30PM,YES,0,4.5,N,1.343687036,103.69350870000001
285,J71,BLK 812/826 JURONG WEST STREET 81,SURFACE CAR PARK,ELECTRONIC PARKING,WHOLE DAY,SUN & PH FR 7AM-10.30PM,YES,0,4.5,N,1.3462276480000002,103.69417440000001
286,J72,BLK 743/751 JURONG WEST STREET 73,SURFACE CAR PARK,ELECTRONIC PARKING,WHOLE DAY,SUN & PH FR 7AM-10.30PM,YES,0,9.99,N,1.347267285,103.6977338
287,J73,BLK 719/731 JURONG WEST STREET 72,SURFACE CAR PARK,ELECTRONIC PARKING,WHOLE DAY,SUN & PH FR 7AM-10.30PM,YES,0,9.99,N,1.343995386,103.6982221
288,J74,BLK 711/718 JURONG WEST STREET 71,SURFACE CAR PARK,ELECTRONIC PARKING,WHOLE DAY,SUN & PH FR 7AM-10.30PM,YES,0,9.99,N,1.342664584,103.6961123
289,J75M,BLK 841A JURONG WEST STREET 81,MULTI-STOREY CAR PARK,ELECTRONIC PARKING,WHOLE DAY,SUN & PH FR 7AM-10.30PM,YES,10,1.9,N,1.34413466,103.693089
290,J76M,BLK 832A JURONG WEST STREET 81,MULTI-STOREY CAR PARK,ELECTRONIC PARKING,WHOLE DAY,SUN & PH FR 7AM-10.30PM,YES,11,1.9,N,1.3443044119999998,103.6945292
291,J77M,BLK 750A JURONG WEST STREET 73,MULTI-STOREY CAR PARK,ELECTRONIC PARKING,WHOLE DAY,SUN & PH FR 7AM-10.30PM,YES,10,1.9,N,1.347445424,103.6985606
292,J78M,BLK 702A JURONG WEST STREET 71,MULTI-STOREY CAR PARK,ELECTRONIC PARKING,WHOLE DAY,SUN & PH FR 7AM-10.30PM,YES,10,1.9,N,1.341565855,103.6951233
293,J79M,BLK 821A JURONG WEST STREET 81,MULTI-STOREY CAR PARK,ELECTRONIC PARKING,WHOLE DAY,SUN & PH FR 7AM-10.30PM,YES,11,2.0,N,1.346501084,103.69493879999999
294,J80M,BLK 734A JURONG WEST STREET 73,MULTI-STOREY CAR PARK,ELECTRONIC PARKING,WHOLE DAY,SUN & PH FR 7AM-10.30PM,YES,11,2.0,N,1.3455473430000002,103.7009695
295,J81M,BLK 760A JURONG WEST STREET 74,MULTI-STOREY CAR PARK,ELECTRONIC PARKING,WHOLE DAY,SUN & PH FR 7AM-10.30PM,YES,11,1.9,N,1.349591459,103.7001773
296,J82M,BLK 844A JURONG WEST ST 81,MULTI-STOREY CAR PARK,ELECTRONIC PARKING,WHOLE DAY,SUN & PH FR 7AM-10.30PM,YES,10,2.0,N,1.3458500080000002,103.69245009999999
297,J83M,BLK 865A JURONG WEST ST 81,MULTI-STOREY CAR PARK,ELECTRONIC PARKING,WHOLE DAY,SUN & PH FR 7AM-10.30PM,YES,8,2.0,N,1.350220653,103.6950644
298,J84M,BLK 854A JURONG WEST ST 81,MULTI-STOREY CAR PARK,ELECTRONIC PARKING,WHOLE DAY,SUN & PH FR 7AM-10.30PM,YES,10,2.0,N,1.347724683,103.69647859999999
299,J85M,BLK 859A JURONG WEST ST 81,MULTI-STOREY CAR PARK,ELECTRONIC PARKING,WHOLE DAY,SUN & PH FR 7AM-10.30PM,YES,8,2.0,N,1.34997719,103.69623490000001
300,J86M,BLK 764A JURONG WEST ST 74,MULTI-STOREY CAR PARK,ELECTRONIC PARKING,WHOLE DAY,SUN & PH FR 7AM-10.30PM,YES,8,2.0,N,1.349962272,103.69909009999999
301,J88M,BLK 692A JURONG WEST CENTRAL 1,MULTI-STOREY CAR PARK,ELECTRONIC PARKING,WHOLE DAY,NO,YES,12,2.15,N,1.341679268,103.7072062
302,J89M,BLK 691A JURONG WEST CENTRAL 1,MULTI-STOREY CAR PARK,ELECTRONIC PARKING,WHOLE DAY,SUN & PH FR 7AM-10.30PM,YES,10,2.1,N,1.342375345,103.7059008
303,J98M,BLK 647A JURONG WEST STREET 61,MULTI-STOREY CAR PARK,ELECTRONIC PARKING,WHOLE DAY,SUN & PH FR 7AM-10.30PM,YES,10,2.15,N,1.339778802,103.696857
304,J99M,BLK 640A JURONG WEST STREET 61,MULTI-STOREY CAR PARK,ELECTRONIC PARKING,WHOLE DAY,SUN & PH FR 7AM-10.30PM,YES,10,2.15,N,1.339733303,103.696043
305,JB1,"BLK 3-5,7,8,4A JALAN BATU",SURFACE CAR PARK,ELECTRONIC PARKING,7AM-10.30PM,NO,NO,0,4.5,N,1.302401825,103.88278659999999
306,JB2,BLK 10-11 JALAN BATU,SURFACE CAR PARK,ELECTRONIC PARKING,7AM-10.30PM,NO,NO,0,0.0,N,1.3016276070000001,103.8829967
307,JB3,"BLK 6,12,14 KAMPONG ARANG ROAD",SURFACE CAR PARK,ELECTRONIC PARKING,7AM-10.30PM,NO,NO,0,0.0,N,1.30052504,103.8842884
308,JB4,"BLK 1,2,9 KAMPONG KAYU",SURFACE CAR PARK,ELECTRONIC PARKING,WHOLE DAY,SUN & PH FR 7AM-10.30PM,YES,0,0.0,N,1.303483221,103.88316879999999
309,JBM,BLK 134A JALAN BUKIT MERAH,MULTI-STOREY CAR PARK,ELECTRONIC PARKING,WHOLE DAY,SUN & PH FR 7AM-10.30PM,YES,11,1.9,N,1.27919666,103.82712590000001
310,JBM2,BLK 113A JLN BUKIT MERAH,MULTI-STOREY CAR PARK,ELECTRONIC PARKING,WHOLE DAY,SUN & PH FR 7AM-10.30PM,YES,10,2.15,N,1.280153446,103.825292
311,JKM,BLK 8A JALAN KUKOH MSCP,MULTI-STOREY CAR PARK,ELECTRONIC PARKING,WHOLE DAY,SUN & PH FR 7AM-10.30PM,YES,3,1.98,N,1.287187976,103.83900279999999
312,JKS,BLK 1 JALAN KUKOH CAR PARK,SURFACE CAR PARK,ELECTRONIC PARKING,WHOLE DAY,SUN & PH FR 7AM-10.30PM,YES,0,0.0,N,1.288164623,103.83964040000001
313,JM1,BLK 517B JURONG WEST STREET 52,MULTI-STOREY CAR PARK,ELECTRONIC PARKING,WHOLE DAY,SUN & PH FR 7AM-10.30PM,YES,10,2.15,N,1.345070539,103.72065040000001
314,JM10,BLK 648 JURONG WEST ST 61,MULTI-STOREY CAR PARK,ELECTRONIC PARKING,WHOLE DAY,SUN & PH FR 7AM-10.30PM,YES,12,2.15,N,1.338948679,103.6972875
315,JM12,BLK 624A JURONG WEST STREET 61,MULTI-STOREY CAR PARK,ELECTRONIC PARKING,WHOLE DAY,SUN & PH FR 7AM-10.30PM,YES,12,2.15,N,1.341120971,103.6984364
316,JM13,BLK 601A JURONG WEST STREET 62,MULTI-STOREY CAR PARK,ELECTRONIC PARKING,WHOLE DAY,SUN & PH FR 7AM-10.30PM,YES,19,2.15,N,1.3394709470000001,103.6997449
317,JM14,BLK 635A JURONG WEST STREET 65,MULTI-STOREY CAR PARK,ELECTRONIC PARKING,WHOLE DAY,SUN & PH FR 7AM-10.30PM,YES,12,2.15,N,1.342400674,103.6987696
318,JM15,BLK 617A JURONG WEST STREET 65,MULTI-STOREY CAR PARK,ELECTRONIC PARKING,WHOLE DAY,SUN & PH FR 7AM-10.30PM,YES,12,2.15,N,1.340888829,103.7000824
319,JM18,BLK 629A JURONG WEST ST 65,MULTI-STOREY CAR PARK,ELECTRONIC PARKING,WHOLE DAY,SUN & PH FR 7AM-10.30PM,YES,12,2.15,N,1.3429966290000002,103.6995293
320,JM19,BLK 273 JURONG WEST AVENUE 3,MULTI-STOREY CAR PARK,ELECTRONIC PARKING,WHOLE DAY,SUN & PH FR 7AM-10.30PM,YES,13,2.15,N,1.3519736919999998,103.7028211
321,JM22,BLK 674 JURONG WEST STREET 65,MULTI-STOREY CAR PARK,ELECTRONIC PARKING,WHOLE DAY,SUN & PH FR 7AM-10.30PM,YES,12,2.15,N,1.3447485419999998,103.7025917
322,JM23,BLK 276 JURONG WEST STREET 25,MULTI-STOREY CAR PARK,ELECTRONIC PARKING,WHOLE DAY,SUN & PH FR 7AM-10.30PM,YES,12,2.15,N,1.353562688,103.70378740000001
323,JM25,BLK 673 JURONG WEST ST 65,MULTI-STOREY CAR PARK,ELECTRONIC PARKING,WHOLE DAY,SUN & PH FR 7AM-10.30PM,YES,12,2.15,N,1.34430368,103.7006282
324,JM28,BLK 990 JURONG WEST ST 93,MULTI-STOREY CAR PARK,ELECTRONIC PARKING,WHOLE DAY,SUN & PH FR 7AM-10.30PM,YES,13,2.1,N,1.335327222,103.6956878
325,JM29,BLK 986 JURONG WEST ST 93,MULTI-STOREY CAR PARK,ELECTRONIC PARKING,WHOLE DAY,SUN & PH FR 7AM-10.30PM,YES,14,2.1,N,1.337005064,103.69450450000001
326,JM30,BLK 271 JURONG WEST ST 24,MULTI-STOREY CAR PARK,ELECTRONIC PARKING,WHOLE DAY,SUN & PH FR 7AM-10.30PM,YES,10,2.15,N,1.3504991259999999,103.7038848
327,JM31,BLK 638A JURONG WEST ST 61,MULTI-STOREY CAR PARK,ELECTRONIC PARKING,WHOLE DAY,NO,YES,8,2.15,N,1.342026652,103.6975593
328,JM7,BLK 669 JURONG WEST ST 64,MULTI-STOREY CAR PARK,ELECTRONIC PARKING,WHOLE DAY,SUN & PH FR 7AM-10.30PM,YES,12,2.1,N,1.342485928,103.7030065
329,JRM,BLK 814 JELLICOE ROAD,MULTI-STOREY CAR PARK,ELECTRONIC PARKING,WHOLE DAY,SUN & PH FR 7AM-10.30PM,YES,12,2.15,N,1.30716702,103.8618542
330,K2,"BLK 9,10,12 PINE CLOSE",SURFACE CAR PARK,ELECTRONIC PARKING,7AM-10.30PM,NO,NO,0,0.0,N,1.308736475,103.8823513
331,K2T,BLK 21 JALAN EMPAT,SURFACE CAR PARK,ELECTRONIC PARKING,WHOLE DAY,NO,YES,0,0.0,N,1.307538013,103.8835436
332,K7,BLK 51 OLD AIRPORT ROAD,SURFACE CAR PARK,ELECTRONIC PARKING,WHOLE DAY,NO,YES,0,4.5,N,1.308894519,103.88601690000002
333,KB1,BLK 54/56/58 GEYLANG BAHRU ROAD,SURFACE CAR PARK,ELECTRONIC PARKING,7AM-10.30PM,SUN & PH FR 7AM-10.30PM,NO,0,4.5,N,1.3235736040000001,103.8689003
334,KB10,BLK 30 BENDEMEER ROAD,SURFACE CAR PARK,ELECTRONIC PARKING,7AM-10.30PM,SUN & PH FR 7AM-10.30PM,NO,0,4.5,N,1.318903304,103.8635926
335,KB11,BLK 34 WHAMPOA WEST,SURFACE CAR PARK,ELECTRONIC PARKING,WHOLE DAY,SUN & PH FR 7AM-10.30PM,YES,0,4.5,N,1.3205826809999999,103.863722
336,KB12,BLK 22/24 SERANGOON ROAD,SURFACE CAR PARK,ELECTRONIC PARKING,WHOLE DAY,SUN & PH FR 7AM-10.30PM,YES,0,4.5,N,1.3191062,103.8615866
337,KB14,BLK 66/71 KALLANG BAHRU,SURFACE CAR PARK,ELECTRONIC PARKING,WHOLE DAY,SUN & PH FR 7AM-10.30PM,YES,0,4.5,N,1.320557705,103.87006190000001
338,KB17,BLK 23 BENDEMEER ROAD,SURFACE CAR PARK,ELECTRONIC PARKING,WHOLE DAY,SUN & PH FR 7AM-10.30PM,YES,0,4.5,N,1.31766412,103.8629102
339,KB3,BLK 64/65/67 KALLANG BAHRU,SURFACE CAR PARK,ELECTRONIC PARKING,WHOLE DAY,SUN & PH FR 7AM-10.30PM,YES,0,4.5,N,1.320828035,103.8696551
340,KB4,BLK 72/93/97 GEYLANG BAHRU,SURFACE CAR PARK,ELECTRONIC PARKING,WHOLE DAY,SUN & PH FR 7AM-10.30PM,YES,0,4.5,N,1.323129961,103.870683
341,KB7,BLK 69 GEYLANG BAHRU,SURFACE CAR PARK,ELECTRONIC PARKING,WHOLE DAY,SUN & PH FR 7AM-10.30PM,YES,0,4.5,N,1.321585781,103.87047840000001
342,KBM,BLK 65A KALLANG BAHRU,MULTI-STOREY CAR PARK,ELECTRONIC PARKING,WHOLE DAY,SUN & PH FR 7AM-10.30PM,YES,12,2.15,N,1.320239288,103.86912459999999
343,KLM,BLK 31 KELANTAN LANE MSCP,MULTI-STOREY CAR PARK,ELECTRONIC PARKING,WHOLE DAY,SUN & PH FR 7AM-10.30PM,YES,7,1.8,N,1.306163378,103.85683359999999
344,KM2,BLK 93A JALAN DUA,MULTI-STOREY CAR PARK,ELECTRONIC PARKING,WHOLE DAY,SUN & PH FR 7AM-10.30PM,YES,9,2.0,N,1.30877082,103.8877371
345,KM3,BLK 11A PINE CLOSE,MULTI-STOREY CAR PARK,ELECTRONIC PARKING,WHOLE DAY,SUN & PH FR 7AM-10.30PM,YES,12,2.15,N,1.308503978,103.8829465
346,KM4,BLK 49A JALAN TIGA,MULTI-STOREY CAR PARK,ELECTRONIC PARKING,WHOLE DAY,NO,YES,14,2.15,N,1.308492553,103.8853628
347,KTM5,BLK 126 KIM TIAN ROAD,MULTI-STOREY CAR PARK,ELECTRONIC PARKING,WHOLE DAY,NO,YES,10,2.15,N,1.282529097,103.8294614
348,KTM6,BLK 127 KIM TIAN ROAD,MULTI-STOREY CAR PARK,ELECTRONIC PARKING,WHOLE DAY,NO,YES,6,2.15,N,1.281856452,103.8292434
349,LT1,"BLK 110,113-116 LENGKONG TIGA",SURFACE CAR PARK,ELECTRONIC PARKING,WHOLE DAY,NO,YES,0,4.5,N,1.323036536,103.91157559999999
350,LT2,BLK 111-112 LENGKONG TIGA,SURFACE CAR PARK,ELECTRONIC PARKING,7AM-10.30PM,NO,NO,0,4.5,N,1.323908174,103.91087370000001
351,LT3,BLK 101-109 LENGKONG TIGA,SURFACE CAR PARK,ELECTRONIC PARKING,7AM-10.30PM,NO,NO,0,4.5,N,1.325035931,103.9104926
352,M1,BLK 85 TO 94/92A PIPIT ROAD,SURFACE CAR PARK,ELECTRONIC PARKING,WHOLE DAY,SUN & PH FR 7AM-10.30PM,YES,0,4.5,N,1.3230747809999999,103.88643640000001
353,M16,BLK 37 CIRCUIT ROAD,SURFACE CAR PARK,ELECTRONIC PARKING,WHOLE DAY,SUN & PH FR 7AM-10.30PM,YES,0,4.5,N,1.328431167,103.8866723
354,M20,BLK 65 & 80 CIRCUIT RD,SURFACE CAR PARK,ELECTRONIC PARKING,7AM-10.30PM,SUN & PH FR 7AM-10.30PM,NO,0,0.0,N,1.327590453,103.88726559999999
355,M25,BLK 53 TO 56/68/70/71/72 PIPIT RD/CIRCUIT RD,SURFACE CAR PARK,ELECTRONIC PARKING,WHOLE DAY,NO,YES,0,4.5,N,1.324225444,103.8881777
356,M3,BLK 19 TO 21/23/24/30/32 BALAM RD,SURFACE CAR PARK,ELECTRONIC PARKING,7AM-10.30PM,SUN & PH FR 7AM-10.30PM,NO,0,4.5,N,1.3306808559999999,103.8857074
357,M32,BLK 120 TO 124 PAYA LEBAR WAY,SURFACE CAR PARK,ELECTRONIC PARKING,WHOLE DAY,SUN & PH FR 7AM-10.30PM,YES,0,0.0,N,1.3223128709999998,103.882793
358,M35,BLK 41 TO 42 CIRCUIT ROAD,SURFACE CAR PARK,ELECTRONIC PARKING,7AM-7PM,NO,NO,0,0.0,N,1.327281852,103.885915
359,M36,BLK 43 CIRCUIT ROAD,SURFACE CAR PARK,ELECTRONIC PARKING,7AM-7PM,NO,NO,0,0.0,N,1.326703518,103.885456
360,M37,BLK 38 TO 40 CIRCUIT ROAD,SURFACE CAR PARK,ELECTRONIC PARKING,7AM-7PM,NO,NO,0,0.0,N,1.327677409,103.88560509999999
361,M38,BLK 63 TO 64 CIRCUIT ROAD,SURFACE CAR PARK,ELECTRONIC PARKING,7AM-10.30PM,NO,NO,0,0.0,N,1.327153049,103.8874767
362,M4,BLK 22/34/36 CIRCUIT RD,SURFACE CAR PARK,ELECTRONIC PARKING,WHOLE DAY,SUN & PH FR 7AM-10.30PM,YES,0,0.0,N,1.3290227940000001,103.8876597
363,MLM,BLK 157A MEI LING STREET,MULTI-STOREY CAR PARK,ELECTRONIC PARKING,WHOLE DAY,SUN & PH FR 7AM-10.30PM,YES,11,2.15,N,1.293365005,103.8034545
364,MM1,BLK 28A BALAM ROAD,MULTI-STOREY CAR PARK,ELECTRONIC PARKING,WHOLE DAY,NO,YES,10,2.0,N,1.3304551000000002,103.88706359999999
365,MM2,BLK 52A PIPIT ROAD,MULTI-STOREY CAR PARK,ELECTRONIC PARKING,WHOLE DAY,SUN & PH FR 7AM-10.30PM,YES,12,2.15,N,1.324339688,103.8860942
366,MM3,BLK 66A CIRCUIT ROAD,MULTI-STOREY CAR PARK,ELECTRONIC PARKING,WHOLE DAY,SUN & PH FR 7AM-10.30PM,YES,11,2.15,N,1.326266278,103.8880186
367,MM4,BLK 31A CIRCUIT ROAD,MULTI-STOREY CAR PARK,ELECTRONIC PARKING,WHOLE DAY,SUN & PH FR 7AM-10.30PM,YES,11,2.15,N,1.329329657,103.8854866
368,MN1,BLKS 108/112 MCNAIR ROAD,SURFACE CAR PARK,ELECTRONIC PARKING,WHOLE DAY,SUN & PH FR 7AM-10.30PM,YES,0,3.5,N,1.322029474,103.8592002
369,MN2,BLKS 119/124 MCNAIR ROAD,SURFACE CAR PARK,ELECTRONIC PARKING,WHOLE DAY,SUN & PH FR 7AM-10.30PM,YES,0,4.5,N,1.318049689,103.8563684
370,MNRM,BLK 108A MCNAIR ROAD,MULTI-STOREY CAR PARK,ELECTRONIC PARKING,WHOLE DAY,SUN & PH FR 7AM-10.30PM,YES,12,2.15,N,1.320540215,103.8594305
371,MP1,BLK 1 TO 4 MARINE TERRACE,SURFACE CAR PARK,ELECTRONIC PARKING,7AM-10.30PM,NO,NO,0,4.5,N,1.30481836,103.91752220000001
372,MP12,BLK 72 TO 76 MARINE DRIVE,SURFACE CAR PARK,ELECTRONIC PARKING,WHOLE DAY,NO,YES,0,4.5,N,1.303181701,103.90764990000001
373,MP13,BLK 78 & 79 MARINE DRIVE,SURFACE CAR PARK,ELECTRONIC PARKING,WHOLE DAY,NO,YES,0,0.0,N,1.301686373,103.9088509
374,MP17,BLK 51/59 MARINE TERRACE,SURFACE CAR PARK,ELECTRONIC PARKING,WHOLE DAY,SUN & PH FR 7AM-10.30PM,YES,0,0.0,N,1.306127767,103.9148955
375,MP1M,BLK 65A MARINE DRIVE,MULTI-STOREY CAR PARK,ELECTRONIC PARKING,WHOLE DAY,NO,YES,5,2.0,N,1.302855262,103.91001
376,MP2,BLK 5 TO 8 MARINE TERRACE,SURFACE CAR PARK,ELECTRONIC PARKING,WHOLE DAY,SUN & PH FR 7AM-10.30PM,YES,0,4.5,N,1.304224614,103.9166577
377,MP5,BLK 52/57 MARINE TERRACE,SURFACE CAR PARK,ELECTRONIC PARKING,WHOLE DAY,NO,YES,0,0.0,N,1.306109647,103.9161652
378,MP5M,BLK 47A MARINE CRESCENT,MULTI-STOREY CAR PARK,ELECTRONIC PARKING,7AM-10.30PM,NO,NO,2,2.15,N,1.3054480240000002,103.91247840000001
379,MP5S,BLK 45 MARINE CRESCENT,SURFACE CAR PARK,ELECTRONIC PARKING,7AM-10.30PM,NO,NO,0,4.5,N,1.304672037,103.91256920000001
380,MP6,BLK 50/50A/53 MARINE TERRACE,SURFACE CAR PARK,ELECTRONIC PARKING,WHOLE DAY,SUN & PH FR 7AM-10.30PM,YES,0,0.0,N,1.30549658,103.9163814
381,MR4,BLK 7 KING GEORGE AVENUE,SURFACE CAR PARK,ELECTRONIC PARKING,7AM-10.30PM,SUN & PH FR 7AM-10.30PM,NO,0,0.0,N,1.307914043,103.85997309999999
382,NBRM,BLK 13 NORTH BRIDGE ROAD MSCP,MULTI-STOREY CAR PARK,ELECTRONIC PARKING,WHOLE DAY,SUN & PH FR 7AM-10.30PM,YES,10,1.9,N,1.304003617,103.86301040000001
383,P1,BLK 196 PUNGGOL FIELD,MULTI-STOREY CAR PARK,ELECTRONIC PARKING,WHOLE DAY,SUN & PH FR 7AM-10.30PM,YES,7,2.15,N,1.3993255230000001,103.907016
384,P2,BLK 199 PUNGGOL FIELD,MULTI-STOREY CAR PARK,ELECTRONIC PARKING,WHOLE DAY,SUN & PH FR 7AM-10.30PM,YES,7,2.15,N,1.400096829,103.90601550000001
385,P3,BLK 101 PUNGGOL FIELD,MULTI-STOREY CAR PARK,ELECTRONIC PARKING,WHOLE DAY,SUN & PH FR 7AM-10.30PM,YES,8,2.15,N,1.398456837,103.90577449999999
386,P4,BLK 105 EDGEFIELD PLAINS,MULTI-STOREY CAR PARK,ELECTRONIC PARKING,WHOLE DAY,SUN & PH FR 7AM-10.30PM,YES,7,2.15,N,1.3972271619999999,103.90562290000001
387,P5,BLK 107 PUNGGOL FIELD,MULTI-STOREY CAR PARK,ELECTRONIC PARKING,WHOLE DAY,SUN & PH FR 7AM-10.30PM,YES,7,2.15,N,1.396877555,103.90764190000002
388,P6,BLK 109 PUNGGOL FIELD,MULTI-STOREY CAR PARK,ELECTRONIC PARKING,WHOLE DAY,SUN & PH FR 7AM-10.30PM,YES,7,2.15,N,1.3953685690000002,103.9094623
389,PL14,BLK 292 PUNGGOL CENTRAL,MULTI-STOREY CAR PARK,ELECTRONIC PARKING,WHOLE DAY,SUN & PH FR 7AM-10.30PM,YES,9,2.15,N,1.402396877,103.9050495
390,PL15,BLK 171 EDGEDALE PLAINS,MULTI-STOREY CAR PARK,ELECTRONIC PARKING,WHOLE DAY,SUN & PH FR 7AM-10.30PM,YES,10,2.15,N,1.3948625190000001,103.91258499999999
391,PL25,BLK 172 EDGEDALE PLAINS,MULTI-STOREY CAR PARK,ELECTRONIC PARKING,WHOLE DAY,SUN & PH FR 7AM-10.30PM,YES,8,2.15,N,1.395519825,103.9117777
392,PL29,BLK 633 PUNGGOL DRIVE,BASEMENT CAR PARK,ELECTRONIC PARKING,7AM-10.30PM,NO,NO,1,2.15,Y,1.400538847,103.91326600000001
393,PL30,BLK 170D PUNGGOL EAST,BASEMENT CAR PARK,ELECTRONIC PARKING,7AM-10.30PM,NO,NO,1,2.15,Y,1.394353945,103.9140938
394,PL31,BLK 301 PUNGGOL CENTRAL,MULTI-STOREY CAR PARK,ELECTRONIC PARKING,7AM-10.30PM,NO,NO,8,2.15,N,1.403678583,103.906198
395,PL32,BLK 302 PUNGGOL PLACE,MULTI-STOREY CAR PARK,ELECTRONIC PARKING,7AM-10.30PM,NO,NO,10,2.15,N,1.40484725,103.9046067
396,PL33,BLK 621A - 621B EDGEFIELD WALK,SURFACE CAR PARK,ELECTRONIC PARKING,7AM-10.30PM,NO,NO,0,4.5,N,1.401255387,103.9098907
397,PL39,BLK 267 PUNGGOL FIELD,MULTI-STOREY CAR PARK,ELECTRONIC PARKING,WHOLE DAY,NO,YES,3,2.15,N,1.4040002040000001,103.8979528
398,PL40,BLK 270 PUNGGOL FIELD,MULTI-STOREY CAR PARK,ELECTRONIC PARKING,7AM-10.30PM,NO,NO,2,2.15,N,1.403721063,103.8991503
399,PL41,BLK 273 PUNGGOL PLACE,MULTI-STOREY CAR PARK,ELECTRONIC PARKING,WHOLE DAY,NO,YES,2,2.15,N,1.402651088,103.9019427
400,PL42,BLK 616 PUNGGOL DRIVE,MULTI-STOREY CAR PARK,ELECTRONIC PARKING,7AM-10.30PM,NO,NO,2,2.15,N,1.402126424,103.9116973
401,PL44,BLK 206A PUNGGOL PLACE,SURFACE CAR PARK,ELECTRONIC PARKING,7AM-10.30PM,NO,NO,0,3.8,N,1.3988565569999998,103.90132879999999
402,PL45,BLK 169 PUNGGOL FIELD,MULTI-STOREY CAR PARK,ELECTRONIC PARKING,7AM-10.30PM,NO,NO,2,2.15,N,1.39362938,103.91450019999999
403,PL46,BLK 624 PUNGGOL CENTRAL,COVERED CAR PARK,ELECTRONIC PARKING,7AM-10.30PM,NO,NO,1,2.15,N,1.400259432,103.9116298
404,PL48,BLK 271 PUNGGOL WALK,COVERED CAR PARK,ELECTRONIC PARKING,7AM-10.30PM,NO,NO,1,2.15,N,1.403005118,103.9003838
405,PL67,BLK 314 PUNGGOL WAY,MULTI-STOREY CAR PARK,ELECTRONIC PARKING,WHOLE DAY,SUN & PH FR 7AM-10.30PM,YES,2,2.15,N,1.40847387,103.89751340000001
406,PL68,BLK 217 SUMANG WALK,MULTI-STOREY CAR PARK,ELECTRONIC PARKING,WHOLE DAY,NO,YES,16,2.15,N,1.402849777,103.895639
407,PL69,BLK 661 EDGEDALE PLAINS,MULTI-STOREY CAR PARK,ELECTRONIC PARKING,WHOLE DAY,NO,YES,13,2.15,N,1.4025347590000001,103.9176146
408,PM11,BLK 269A PASIR RIS STREET 21,MULTI-STOREY CAR PARK,ELECTRONIC PARKING,WHOLE DAY,SUN & PH FR 7AM-10.30PM,YES,8,1.9,N,1.364793275,103.96345699999999
409,PM13,BLK 199A PASIR RIS STREET 12,MULTI-STOREY CAR PARK,ELECTRONIC PARKING,WHOLE DAY,SUN & PH FR 7AM-10.30PM,YES,12,1.9,N,1.366473555,103.9595977
410,PM14,BLK 180A PASIR RIS STREET 11,MULTI-STOREY CAR PARK,ELECTRONIC PARKING,WHOLE DAY,SUN & PH FR 7AM-10.30PM,YES,12,1.9,N,1.364708433,103.9601054
411,PM16,BLK 149A PASIR RIS STREET 13,MULTI-STOREY CAR PARK,ELECTRONIC PARKING,WHOLE DAY,SUN & PH FR 7AM-10.30PM,YES,10,2.0,N,1.3623587330000002,103.96272059999998
412,PM17,BLK 142A PASIR RIS STREET 11,MULTI-STOREY CAR PARK,ELECTRONIC PARKING,WHOLE DAY,SUN & PH FR 7AM-10.30PM,YES,10,2.0,N,1.3627928530000002,103.9597007
413,PM18,BLK 135A PASIR RIS STREET 11,MULTI-STOREY CAR PARK,ELECTRONIC PARKING,WHOLE DAY,SUN & PH FR 7AM-10.30PM,YES,8,2.0,N,1.36475655,103.9568798
414,PM19,BLK 108A PASIR RIS STREET 12,MULTI-STOREY CAR PARK,ELECTRONIC PARKING,WHOLE DAY,SUN & PH FR 7AM-10.30PM,YES,12,2.0,N,1.3679567780000002,103.95702270000001
415,PM27,BLK 578A PASIR RIS STREET 53,MULTI-STOREY CAR PARK,ELECTRONIC PARKING,WHOLE DAY,SUN & PH FR 7AM-10.30PM,YES,11,2.0,N,1.3739601890000002,103.946596
416,PM28,BLK 586A PASIR RIS STREET 53,MULTI-STOREY CAR PARK,ELECTRONIC PARKING,WHOLE DAY,SUN & PH FR 7AM-10.30PM,YES,10,2.0,N,1.3747001090000002,103.947766
417,PM29,BLK 601A ELIAS ROAD,MULTI-STOREY CAR PARK,ELECTRONIC PARKING,WHOLE DAY,SUN & PH FR 7AM-10.30PM,YES,10,1.9,N,1.3773336409999999,103.94337370000001
418,PM3,BLK 225A PASIR RIS STREET 21,MULTI-STOREY CAR PARK,ELECTRONIC PARKING,WHOLE DAY,SUN & PH FR 7AM-10.30PM,YES,13,1.9,N,1.37180035,103.960933
419,PM30,BLK 614A ELIAS ROAD,MULTI-STOREY CAR PARK,ELECTRONIC PARKING,7AM-10.30PM,NO,NO,10,1.9,N,1.375745384,103.9421772
420,PM36,BLK 710A PASIR RIS STREET 72,MULTI-STOREY CAR PARK,ELECTRONIC PARKING,WHOLE DAY,SUN & PH FR 7AM-10.30PM,YES,10,2.0,N,1.3824165590000002,103.93707049999999
421,PM37,BLK 718A PASIR RIS STREET 72,MULTI-STOREY CAR PARK,ELECTRONIC PARKING,WHOLE DAY,SUN & PH FR 7AM-10.30PM,YES,10,2.0,N,1.381924788,103.9360195
422,PM40,BLK 744A PASIR RIS STREET 71,MULTI-STOREY CAR PARK,ELECTRONIC PARKING,7AM-10.30PM,SUN & PH FR 7AM-10.30PM,NO,11,2.0,N,1.3779476130000001,103.9353837
423,PM41,BLK 747A PASIR RIS STREET 71,MULTI-STOREY CAR PARK,ELECTRONIC PARKING,WHOLE DAY,SUN & PH FR 7AM-10.30PM,YES,9,2.0,N,1.37873742,103.9341244
424,PM45,BLK 773A PASIR RIS STREET 71,MULTI-STOREY CAR PARK,ELECTRONIC PARKING,WHOLE DAY,SUN & PH FR 7AM-10.30PM,YES,10,2.0,N,1.374601955,103.93590490000001
425,PM6,BLK 245A PASIR RIS STREET 21,MULTI-STOREY CAR PARK,ELECTRONIC PARKING,WHOLE DAY,SUN & PH FR 7AM-10.30PM,YES,10,1.9,N,1.3708021959999999,103.96339470000001
426,PM7,BLK 257A PASIR RIS STREET 21,MULTI-STOREY CAR PARK,ELECTRONIC PARKING,WHOLE DAY,SUN & PH FR 7AM-10.30PM,YES,8,1.9,N,1.367557638,103.96324990000001
427,PP1,BLK 101 TO 109 POTONG PASIR AVENUE 1,SURFACE CAR PARK,ELECTRONIC PARKING,WHOLE DAY,SUN & PH FR 7AM-10.30PM,YES,0,4.5,N,1.334004902,103.869214
428,PP2,BLK 143 TO 145 POTONG PASIR AVENUES 2/3,SURFACE CAR PARK,ELECTRONIC PARKING,WHOLE DAY,SUN & PH FR 7AM-10.30PM,YES,0,0.0,N,1.332680145,103.8660545
429,PP3,BLK 134 TO 142 POTONG PASIR AVENUE 3,SURFACE CAR PARK,ELECTRONIC PARKING,NO,SUN & PH FR 7AM-10.30PM,YES,0,0.0,N,1.3336019829999999,103.8658445
430,PP4,BLK 121 TO 133 POTONG PASIR AVENUE 1,SURFACE CAR PARK,ELECTRONIC PARKING,WHOLE DAY,SUN & PH FR 7AM-10.30PM,YES,0,0.0,N,1.334732912,103.8661192
431,PP5,BLK 113 TO 120 POTONG PASIR AVENUE 1,SURFACE CAR PARK,ELECTRONIC PARKING,NO,SUN & PH FR 7AM-10.30PM,YES,0,0.0,N,1.336313102,103.86322290000001
432,PR1,BLK 101/108 PASIR RIS STREET 12,SURFACE CAR PARK,ELECTRONIC PARKING,WHOLE DAY,SUN & PH FR 7AM-10.30PM,YES,0,4.5,N,1.36733184,103.9579998
433,Q81,BLK 43 HOLLAND DRIVE,SURFACE CAR PARK,ELECTRONIC PARKING,WHOLE DAY,NO,YES,0,9.99,N,1.307536743,103.79316429999999
434,Q84,BLK 2/4/6/31/32 HOLLAND CLOSE,SURFACE CAR PARK,ELECTRONIC PARKING,NO,SUN & PH FR 7AM-10.30PM,YES,0,4.5,N,1.3067809879999999,103.7966732
435,Q87,BLK 5A HOLLAND CLOSE,MULTI-STOREY CAR PARK,ELECTRONIC PARKING,WHOLE DAY,SUN & PH FR 7AM-10.30PM,YES,11,2.0,N,1.308878937,103.79623840000001
436,Q89,BLK 7B COMMONWEALTH AVENUE,MULTI-STOREY CAR PARK,ELECTRONIC PARKING,WHOLE DAY,SUN & PH FR 7AM-10.30PM,YES,11,2.0,N,1.306246135,103.7950498
437,RCM,BLK 638 VEERASAMY ROAD,MULTI-STOREY CAR PARK,ELECTRONIC PARKING,WHOLE DAY,SUN & PH FR 7AM-10.30PM,YES,6,2.0,N,1.307157291,103.8554168
438,RHM,BLK 88A REDHILL CLOSE,MULTI-STOREY CAR PARK,ELECTRONIC PARKING,WHOLE DAY,SUN & PH FR 7AM-10.30PM,YES,10,1.9,N,1.286463927,103.8185776
439,S19L,BLK 501B WELLINGTON CIRCLE,SURFACE CAR PARK,ELECTRONIC PARKING,NO,NO,NO,0,0.0,N,1.451366057,103.8209114
440,S24L,BLK 507A WELLINGTON CIRCLE,SURFACE CAR PARK,ELECTRONIC PARKING,NO,NO,NO,0,0.0,N,1.45316111,103.82370470000001
441,SAM2,BLK 61 STRATHMORE AVENUE,MULTI-STOREY CAR PARK,ELECTRONIC PARKING,WHOLE DAY,NO,YES,12,2.15,N,1.293966567,103.8110073
442,SB15,BLK 358A ADMIRALTY DRIVE,MULTI-STOREY CAR PARK,ELECTRONIC PARKING,WHOLE DAY,SUN & PH FR 7AM-10.30PM,YES,16,2.15,N,1.448927181,103.8166936
443,SB16,BLK 339 SEMBAWANG CLOSE,MULTI-STOREY CAR PARK,ELECTRONIC PARKING,WHOLE DAY,SUN & PH FR 7AM-10.30PM,YES,11,2.15,N,1.448216045,103.81732120000001
444,SB18,BLK 469/469A/469B ADMIRALTY DRIVE,MULTI-STOREY CAR PARK,ELECTRONIC PARKING,WHOLE DAY,SUN & PH FR 7AM-10.30PM,YES,8,2.05,N,1.448931121,103.81370140000001
445,SB19,BLK 501 WELLINGTON CIRCLE,MULTI-STOREY CAR PARK,ELECTRONIC PARKING,WHOLE DAY,SUN & PH FR 7AM-10.30PM,YES,12,2.15,N,1.4515916430000002,103.82135770000001
446,SB2,BLK 316A SEMBAWANG VISTA,MULTI-STOREY CAR PARK,ELECTRONIC PARKING,WHOLE DAY,SUN & PH FR 7AM-10.30PM,YES,12,2.15,N,1.446448335,103.8205027
447,SB21,BLK 467/467A/467B ADMIRALTY DRIVE,MULTI-STOREY CAR PARK,ELECTRONIC PARKING,WHOLE DAY,SUN & PH FR 7AM-10.30PM,YES,8,2.05,N,1.451781286,103.81423559999999
448,SB22,BLK 351 CANBERRA ROAD,MULTI-STOREY CAR PARK,ELECTRONIC PARKING,WHOLE DAY,SUN & PH FR 7AM-10.30PM,YES,12,2.15,N,1.4511675569999998,103.82028829999999
449,SB23,BLK 354 ADMIRALTY DRIVE,MULTI-STOREY CAR PARK,ELECTRONIC PARKING,NO,SUN & PH FR 7AM-10.30PM,YES,12,2.15,N,1.450035381,103.8183892
450,SB24,BLK 506 WELLINGTON CIRCLE,MULTI-STOREY CAR PARK,ELECTRONIC PARKING,WHOLE DAY,SUN & PH FR 7AM-10.30PM,YES,12,2.15,N,1.452322396,103.8235495
451,SB26,BLK 484A ADMIRALTY LINK,MULTI-STOREY CAR PARK,ELECTRONIC PARKING,WHOLE DAY,SUN & PH FR 7AM-10.30PM,YES,12,2.15,N,1.456465018,103.815224
452,SB27,BLK 492A ADMIRALTY LINK,MULTI-STOREY CAR PARK,ELECTRONIC PARKING,WHOLE DAY,SUN & PH FR 7AM-10.30PM,YES,12,2.15,N,1.4566224159999999,103.8173965
453,SB28,BLK 482A ADMIRALTY LINK,MULTI-STOREY CAR PARK,ELECTRONIC PARKING,WHOLE DAY,SUN & PH FR 7AM-10.30PM,YES,12,2.15,N,1.454863339,103.81563840000001
454,SB29,BLK 508 WELLINGTON CIRCLE,MULTI-STOREY CAR PARK,ELECTRONIC PARKING,WHOLE DAY,SUN & PH FR 7AM-10.30PM,YES,12,2.15,N,1.453045093,103.82007340000001
455,SB3,BLK 325A SEMBAWANG CRESCENT,MULTI-STOREY CAR PARK,ELECTRONIC PARKING,WHOLE DAY,SUN & PH FR 7AM-10.30PM,YES,12,2.15,N,1.444937699,103.8187405
456,SB30,BLK 466 SEMBAWANG DRIVE,MULTI-STOREY CAR PARK,ELECTRONIC PARKING,WHOLE DAY,SUN & PH FR 7AM-10.30PM,YES,2,2.15,N,1.455468086,103.81353979999999
457,SB31,BLK 463 SEMBAWANG DRIVE,MULTI-STOREY CAR PARK,ELECTRONIC PARKING,WHOLE DAY,NO,YES,6,2.15,N,1.455526679,103.81452320000001
458,SB34,BLK 462 SEMBAWANG DRIVE,SURFACE CAR PARK,ELECTRONIC PARKING,WHOLE DAY,NO,YES,0,3.8,N,1.4546450340000001,103.81352159999999
459,SB4,BLK 313A SEMBAWANG DRIVE,MULTI-STOREY CAR PARK,ELECTRONIC PARKING,WHOLE DAY,SUN & PH FR 7AM-10.30PM,YES,12,2.15,N,1.444079707,103.82127320000001
460,SB5,BLK 322A SEMBAWANG CLOSE,MULTI-STOREY CAR PARK,ELECTRONIC PARKING,WHOLE DAY,SUN & PH FR 7AM-10.30PM,YES,12,2.15,N,1.446077602,103.818241
461,SD2,BLK 45/50/51 SIMS DRIVE,SURFACE CAR PARK,ELECTRONIC PARKING,WHOLE DAY,NO,YES,0,4.5,N,1.31692246,103.87836490000001
462,SD3,BLK 46/47/48/49 SIMS PLACE,SURFACE CAR PARK,ELECTRONIC PARKING,WHOLE DAY,SUN & PH FR 7AM-10.30PM,YES,0,4.5,N,1.317329964,103.87924759999999
463,SD5,BLK 53 SIMS PLACE,SURFACE CAR PARK,ELECTRONIC PARKING,WHOLE DAY,SUN & PH FR 7AM-10.30PM,YES,0,4.5,N,1.3177689209999999,103.8799149
464,SD9,BLK 114 LOR 3 GEYLANG,SURFACE CAR PARK,ELECTRONIC PARKING,NO,NO,YES,0,4.15,N,1.31176147,103.87349590000001
465,SDM,BLK 114A LORONG 3 GEYLANG MSCP,MULTI-STOREY CAR PARK,ELECTRONIC PARKING,WHOLE DAY,SUN & PH FR 7AM-10.30PM,YES,5,1.9,N,1.312460212,103.87445140000001
466,SDM2,BLK 50A SIMS DRIVE,MULTI-STOREY CAR PARK,ELECTRONIC PARKING,7AM-10.30PM,SUN & PH FR 7AM-10.30PM,NO,4,2.15,N,1.316132795,103.8784551
467,SE11,BLK 151/154 SERANGOON NORTH AVE 1/2,SURFACE CAR PARK,ELECTRONIC PARKING,WHOLE DAY,NO,YES,0,4.5,N,1.370226001,103.8734194
468,SE13,BLK 223/230 SERANGOON AVENUE 4,SURFACE CAR PARK,ELECTRONIC PARKING,WHOLE DAY,SUN & PH FR 7AM-10.30PM,YES,0,4.5,N,1.356571683,103.8703302
469,SE14,BLK 231/237 SERANGOON AVENUE 3,SURFACE CAR PARK,ELECTRONIC PARKING,WHOLE DAY,SUN & PH FR 7AM-10.30PM,YES,0,0.0,N,1.354552224,103.8699887
470,SE16,BLK 301/319 SERANGOON AVENUE 2,SURFACE CAR PARK,ELECTRONIC PARKING,WHOLE DAY,SUN & PH FR 7AM-10.30PM,YES,0,4.5,N,1.35261889,103.8677199
471,SE20,BLK 264 SERANGOON CENTRAL,MULTI-STOREY CAR PARK,ELECTRONIC PARKING,WHOLE DAY,NO,YES,2,1.9,N,1.3515775680000002,103.8720988
472,SE21,BLK 262/263 SERANGOON CENTRAL,SURFACE CAR PARK,ELECTRONIC PARKING,WHOLE DAY,SUN & PH FR 7AM-10.30PM,YES,0,4.5,N,1.353436181,103.8720161
473,SE22,BLK 261/263 SERANGOON CENTRAL,SURFACE CAR PARK,ELECTRONIC PARKING,WHOLE DAY,SUN & PH FR 7AM-10.30PM,YES,0,4.5,N,1.3541567319999999,103.8721288
474,SE23,BLK 253/254 SERANGOON CENTRAL DRIVE,MULTI-STOREY CAR PARK,ELECTRONIC PARKING,WHOLE DAY,SUN & PH FR 7AM-10.30PM,YES,7,1.9,N,1.3540499069999998,103.87083890000001
475,SE24,BLK 265 SERANGOON AVENUE 3,SURFACE CAR PARK,ELECTRONIC PARKING,WHOLE DAY,NO,YES,0,0.0,N,1.3527643969999998,103.8714942
476,SE31,BLK 514/520 SERANGOON NORTH AVENUE 4,SURFACE CAR PARK,ELECTRONIC PARKING,7AM-10.30PM,SUN & PH FR 7AM-10.30PM,NO,0,4.5,N,1.3715119709999999,103.8736719
477,SE32,BLK 521/530 SERANGOON NORTH AVENUE 4,SURFACE CAR PARK,ELECTRONIC PARKING,7AM-10.30PM,SUN & PH FR 7AM-10.30PM,NO,0,4.5,N,1.372284801,103.8722967
478,SE33,BLK 537/542 SERANGOON NORTH AVENUE 4,SURFACE CAR PARK,ELECTRONIC PARKING,7AM-10.30PM,SUN & PH FR 7AM-10.30PM,NO,0,4.5,N,1.3741617380000002,103.8726078
479,SE34,BLK 531/536 SERANGOON NORTH AVENUE 4,SURFACE CAR PARK,ELECTRONIC PARKING,WHOLE DAY,SUN & PH FR 7AM-10.30PM,YES,0,4.5,N,1.373941085,103.8743072
480,SE35,BLK 500/506B SERANGOON NORTH AVENUE 4,SURFACE CAR PARK,ELECTRONIC PARKING,7AM-10.30PM,SUN & PH FR 7AM-10.30PM,NO,0,4.5,N,1.373099118,103.876253
481,SE38,BLK 504A SERANGOON NORTH AVENUE 4,MULTI-STOREY CAR PARK,ELECTRONIC PARKING,WHOLE DAY,SUN & PH FR 7AM-10.30PM,YES,10,2.0,N,1.373953245,103.8757153
482,SE39,BLK 542A SERANGOON NORTH AVENUE 4,MULTI-STOREY CAR PARK,ELECTRONIC PARKING,WHOLE DAY,SUN & PH FR 7AM-10.30PM,YES,6,2.15,N,1.3735036719999998,103.87170290000002
483,SE40,BLK 550A SERANGOON NORTH AVENUE 3,MULTI-STOREY CAR PARK,ELECTRONIC PARKING,WHOLE DAY,SUN & PH FR 7AM-10.30PM,YES,10,2.15,N,1.3725409569999998,103.870023
484,SE50,BLK 238A SERANGOON AVENUE 2,MULTI-STOREY CAR PARK,ELECTRONIC PARKING,WHOLE DAY,SUN & PH FR 7AM-10.30PM,YES,12,2.15,N,1.3539013430000002,103.86861040000001
485,SE53,BLK 150 SERANGOON NORTH AVE 2,MULTI-STOREY CAR PARK,ELECTRONIC PARKING,WHOLE DAY,SUN & PH FR 7AM-10.30PM,YES,4,2.15,N,1.369378095,103.8750505
486,SG2,BLK 14/19 ST GEORGE RD,SURFACE CAR PARK,ELECTRONIC PARKING,WHOLE DAY,SUN & PH FR 7AM-10.30PM,YES,0,4.5,N,1.32411624,103.8622121
487,SG3,BLK 20/23 ST GEORGE RD,SURFACE CAR PARK,ELECTRONIC PARKING,WHOLE DAY,SUN & PH FR 7AM-10.30PM,YES,0,4.5,N,1.3251469999999999,103.8621767
488,SK10,BLK 241A COMPASSVALE WALK,MULTI-STOREY CAR PARK,ELECTRONIC PARKING,WHOLE DAY,SUN & PH FR 7AM-10.30PM,YES,12,2.15,N,1.3902640169999998,103.898236
489,SK11,BLK 226D COMPASSVALE WALK,MULTI-STOREY CAR PARK,ELECTRONIC PARKING,WHOLE DAY,SUN & PH FR 7AM-10.30PM,YES,12,2.15,N,1.388403181,103.8994635
490,SK12,BLK 103A RIVERVALE WALK,MULTI-STOREY CAR PARK,ELECTRONIC PARKING,WHOLE DAY,SUN & PH FR 7AM-10.30PM,YES,12,2.15,N,1.38320148,103.90065799999999
491,SK13,BLK 228D COMPASSVALE WALK,MULTI-STOREY CAR PARK,ELECTRONIC PARKING,WHOLE DAY,SUN & PH FR 7AM-10.30PM,YES,12,2.15,N,1.38817411,103.9007436
492,SK15,BLK 256A COMPASSVALE ROAD,MULTI-STOREY CAR PARK,ELECTRONIC PARKING,WHOLE DAY,SUN & PH FR 7AM-10.30PM,YES,13,2.15,N,1.3936038430000002,103.8995342
493,SK16,BLK 111A RIVERVALE WALK,MULTI-STOREY CAR PARK,ELECTRONIC PARKING,WHOLE DAY,SUN & PH FR 7AM-10.30PM,YES,12,2.15,N,1.383729704,103.9009038
494,SK17,BLK 248A COMPASSVALE ROAD,MULTI-STOREY CAR PARK,ELECTRONIC PARKING,WHOLE DAY,SUN & PH FR 7AM-10.30PM,YES,13,2.15,N,1.392821391,103.8987068
495,SK19,BLK 190C RIVERVALE DRIVE,MULTI-STOREY CAR PARK,ELECTRONIC PARKING,WHOLE DAY,SUN & PH FR 7AM-10.30PM,YES,9,2.15,N,1.394773253,103.9024282
496,SK2,BLK 236A COMPASSVALE WALK,MULTI-STOREY CAR PARK,ELECTRONIC PARKING,WHOLE DAY,SUN & PH FR 7AM-10.30PM,YES,12,2.15,N,1.3902834069999999,103.9001141
497,SK20,BLK 191C RIVERVALE DRIVE,MULTI-STOREY CAR PARK,ELECTRONIC PARKING,WHOLE DAY,SUN & PH FR 7AM-10.30PM,YES,10,2.15,N,1.394106895,103.9039143
498,SK21,BLK 117D RIVERVALE DRIVE,MULTI-STOREY CAR PARK,ELECTRONIC PARKING,WHOLE DAY,SUN & PH FR 7AM-10.30PM,YES,12,2.15,N,1.38280472,103.9031595
499,SK22,BLK 122F RIVERVALE DRIVE,MULTI-STOREY CAR PARK,ELECTRONIC PARKING,WHOLE DAY,SUN & PH FR 7AM-10.30PM,YES,13,2.15,N,1.3872244480000002,103.9052154
500,SK23,BLK 121E SENGKANG EAST WAY,MULTI-STOREY CAR PARK,ELECTRONIC PARKING,WHOLE DAY,SUN & PH FR 7AM-10.30PM,YES,13,2.15,N,1.3862233730000002,103.90609470000001
501,SK25,BLK 257 COMPASSVALE ROAD,MULTI-STOREY CAR PARK,ELECTRONIC PARKING,WHOLE DAY,SUN & PH FR 7AM-10.30PM,YES,12,2.15,N,1.39292097,103.89795579999999
502,SK26,BLK 259 COMPASSVALE ROAD,MULTI-STOREY CAR PARK,ELECTRONIC PARKING,WHOLE DAY,NO,YES,12,2.15,N,1.3935143419999998,103.89655859999999
503,SK3,BLK 205D COMPASSVALE LANE,MULTI-STOREY CAR PARK,ELECTRONIC PARKING,WHOLE DAY,SUN & PH FR 7AM-10.30PM,YES,12,2.15,N,1.386044181,103.8974259
504,SK32,BLK 200 SENGKANG EAST ROAD,MULTI-STOREY CAR PARK,ELECTRONIC PARKING,WHOLE DAY,SUN & PH FR 7AM-10.30PM,YES,13,2.15,N,1.387658346,103.89216440000001
505,SK33,BLK 201 SENGKANG EAST ROAD,MULTI-STOREY CAR PARK,ELECTRONIC PARKING,WHOLE DAY,SUN & PH FR 7AM-10.30PM,YES,13,2.15,N,1.3883315019999998,103.8923997
506,SK36,BLK 301 ANCHORVALE DRIVE,MULTI-STOREY CAR PARK,ELECTRONIC PARKING,WHOLE DAY,SUN & PH FR 7AM-10.30PM,YES,12,2.15,N,1.388853429,103.8915411
507,SK37,BLK 303 ANCHORVALE LINK,MULTI-STOREY CAR PARK,ELECTRONIC PARKING,WHOLE DAY,SUN & PH FR 7AM-10.30PM,YES,12,2.15,N,1.387448651,103.8906087
508,SK4,BLK 102A RIVERVALE WALK,MULTI-STOREY CAR PARK,ELECTRONIC PARKING,WHOLE DAY,SUN & PH FR 7AM-10.30PM,YES,12,2.15,N,1.3821330180000002,103.9000621
509,SK42,BLK 304 ANCHORVALE LINK,MULTI-STOREY CAR PARK,ELECTRONIC PARKING,WHOLE DAY,SUN & PH FR 7AM-10.30PM,YES,13,2.15,N,1.387879205,103.88933309999999
510,SK43,BLK 290 COMPASSVALE CRESCENT,MULTI-STOREY CAR PARK,ELECTRONIC PARKING,WHOLE DAY,SUN & PH FR 7AM-10.30PM,YES,12,2.15,N,1.3964545819999998,103.8972496
511,SK45,BLK 295 COMPASSVALE CRESCENT,MULTI-STOREY CAR PARK,ELECTRONIC PARKING,WHOLE DAY,SUN & PH FR 7AM-10.30PM,YES,12,2.15,N,1.39760052,103.8987382
512,SK58,BLK 413 FERNVALE LINK,MULTI-STOREY CAR PARK,ELECTRONIC PARKING,WHOLE DAY,SUN & PH FR 7AM-10.30PM,YES,9,2.15,N,1.38944472,103.878212
513,SK6,BLK 233A COMPASSVALE WALK,MULTI-STOREY CAR PARK,ELECTRONIC PARKING,WHOLE DAY,SUN & PH FR 7AM-10.30PM,YES,12,2.15,N,1.3894673240000002,103.9009374
514,SK60,BLK 404 FERNVALE LANE,MULTI-STOREY CAR PARK,ELECTRONIC PARKING,WHOLE DAY,SUN & PH FR 7AM-10.30PM,YES,10,2.15,N,1.387759583,103.87326
515,SK62,BLK 408 FERNVALE RD,MULTI-STOREY CAR PARK,ELECTRONIC PARKING,WHOLE DAY,SUN & PH FR 7AM-10.30PM,YES,9,2.15,N,1.388882781,103.8767195
516,SK63,BLK 208 COMPASSVALE LANE,MULTI-STOREY CAR PARK,ELECTRONIC PARKING,WHOLE DAY,SUN & PH FR 7AM-10.30PM,YES,12,2.15,N,1.38404661,103.8979773
517,SK68,BLK 275 COMPASSVALE LINK,BASEMENT CAR PARK,ELECTRONIC PARKING,7AM-10.30PM,NO,NO,1,2.15,Y,1.3830653869999998,103.89424240000001
518,SK7,BLK 224E COMPASSVALE WALK,MULTI-STOREY CAR PARK,ELECTRONIC PARKING,WHOLE DAY,SUN & PH FR 7AM-10.30PM,YES,12,2.15,N,1.389069203,103.8979912
519,SK70,BLK 273 COMPASSVALE LINK,BASEMENT CAR PARK,ELECTRONIC PARKING,7AM-10.30PM,NO,NO,1,2.15,Y,1.384295703,103.8947422
520,SK71,BLK 277 COMPASSVALE LINK,BASEMENT CAR PARK,ELECTRONIC PARKING,7AM-10.30PM,NO,NO,1,2.15,Y,1.3820774690000002,103.8941882
521,SK72,BLK 272 SENGKANG CENTRAL,BASEMENT CAR PARK,ELECTRONIC PARKING,7AM-10.30PM,NO,NO,1,2.15,Y,1.38514135,103.89388819999999
522,SK73,BLK 270 SENGKANG CENTRAL,MULTI-STOREY CAR PARK,ELECTRONIC PARKING,7AM-10.30PM,NO,NO,10,2.15,N,1.386111897,103.8942447
523,SK74,BLK 439 SENGKANG WEST AVE,MULTI-STOREY CAR PARK,ELECTRONIC PARKING,7AM-10.30PM,NO,NO,9,2.15,N,1.392168391,103.8775962
524,SK75,BLK 441 FERNVALE ROAD,MULTI-STOREY CAR PARK,ELECTRONIC PARKING,7AM-10.30PM,NO,NO,3,2.15,N,1.3916101019999998,103.875111
525,SK77,BLK 410 FERNVALE ROAD,MULTI-STOREY CAR PARK,ELECTRONIC PARKING,7AM-10.30PM,NO,NO,8,2.15,N,1.39031568,103.87653279999999
526,SK78,BLK 443 FERNVALE ROAD,MULTI-STOREY CAR PARK,ELECTRONIC PARKING,7AM-10.30PM,SUN & PH FR 7AM-10.30PM,NO,8,2.15,N,1.391683899,103.8740703
527,SK80,BLK 434 FERNVALE ROAD,MULTI-STOREY CAR PARK,ELECTRONIC PARKING,WHOLE DAY,NO,YES,8,2.15,N,1.3939219930000002,103.876526
528,SK83,BLK 450 SENGKANG WEST WAY,MULTI-STOREY CAR PARK,ELECTRONIC PARKING,7AM-10.30PM,NO,NO,7,2.15,N,1.3941894069999998,103.8734051
529,SK86,BLK 432 SENGKANG WEST WAY,MULTI-STOREY CAR PARK,ELECTRONIC PARKING,7AM-10.30PM,NO,NO,8,2.15,N,1.3943812009999998,103.87716
530,SK87,BLK 448 SENGKANG WEST WAY,MULTI-STOREY CAR PARK,ELECTRONIC PARKING,7AM-10.30PM,NO,NO,7,2.15,N,1.393152022,103.873122
531,SK88,BLK 451 SENGKANG WEST WAY,MULTI-STOREY CAR PARK,ELECTRONIC PARKING,WHOLE DAY,NO,YES,11,2.15,N,1.394021103,103.87410390000001
532,SK91,BLK 281 SENGKANG EAST AVE,MULTI-STOREY CAR PARK,ELECTRONIC PARKING,WHOLE DAY,SUN & PH FR 7AM-10.30PM,YES,14,2.15,N,1.385494391,103.891522
533,SK92,BLK 279 SENGKANG EAST AVE,MULTI-STOREY CAR PARK,ELECTRONIC PARKING,WHOLE DAY,SUN & PH FR 7AM-10.30PM,YES,11,2.15,N,1.386158412,103.8929012
534,SK93,BLK 453 FERNVALE ROAD,MULTI-STOREY CAR PARK,ELECTRONIC PARKING,WHOLE DAY,NO,YES,12,2.15,N,1.393937054,103.8753818
535,SM1,BLK 22 SIN MING ROAD,SURFACE CAR PARK,ELECTRONIC PARKING,WHOLE DAY,SUN & PH FR 7AM-10.30PM,YES,0,0.0,N,1.357918085,103.8393282
536,SM3,BLK 25 SIN MING ROAD,SURFACE CAR PARK,ELECTRONIC PARKING,WHOLE DAY,SUN & PH FR 7AM-10.30PM,YES,0,0.0,N,1.354705141,103.8390666
537,SPM,BLK 108 SPOTTISWOODE PARK MSCP,MULTI-STOREY CAR PARK,ELECTRONIC PARKING,WHOLE DAY,SUN & PH FR 7AM-10.30PM,YES,5,1.9,N,1.273925817,103.8356316
538,STAM,BLK 56A STRATHMORE AVENUE,MULTI-STOREY CAR PARK,ELECTRONIC PARKING,WHOLE DAY,SUN & PH FR 7AM-10.30PM,YES,12,2.15,N,1.2928501909999999,103.8099398
539,T15,BLK 201A/201C TAMPINES STREET 21,SURFACE CAR PARK,ELECTRONIC PARKING,WHOLE DAY,NO,YES,0,0.0,N,1.353207564,103.95276159999999
540,T16,BLK 202/205 TAMPINES STREET 21,SURFACE CAR PARK,ELECTRONIC PARKING,WHOLE DAY,NO,YES,0,0.0,N,1.352550051,103.95231209999999
541,T17,BLK 201D/209/208A TAMPINES STREET 21,SURFACE CAR PARK,ELECTRONIC PARKING,WHOLE DAY,NO,YES,0,4.5,N,1.3519836459999999,103.95326870000001
542,T18,BLK 201E TAMPINES STREET 21,SURFACE CAR PARK,ELECTRONIC PARKING,WHOLE DAY,NO,YES,0,0.0,N,1.353137417,103.9539457
543,T19,BLK 210/230 TAMPINES STREET 23,SURFACE CAR PARK,ELECTRONIC PARKING,WHOLE DAY,SUN & PH FR 7AM-10.30PM,YES,0,4.5,N,1.354534086,103.9533459
544,T37,"BLK 801, 820, 897/898 TAMPINES AVE 4/STREET 81",SURFACE CAR PARK,ELECTRONIC PARKING,WHOLE DAY,SUN & PH FR 7AM-10.30PM,YES,0,4.5,N,1.347358095,103.9368644
545,T41,BLK 821/829 TAMPINES STREET 81,SURFACE CAR PARK,ELECTRONIC PARKING,WHOLE DAY,SUN & PH FR 7AM-10.30PM,YES,0,4.5,N,1.348285841,103.9352805
546,T42,BLK 824/827 TAMPINES STREET 81,SURFACE CAR PARK,ELECTRONIC PARKING,WHOLE DAY,NO,YES,0,4.5,N,1.3492885419999998,103.93272409999999
547,T50,BLK 887-889 TAMPINES ST 81/AVENUE 3,SURFACE CAR PARK,ELECTRONIC PARKING,7AM-10.30PM,SUN & PH FR 7AM-10.30PM,NO,0,4.5,N,1.350722445,103.9310009
548,T51,BLK 894-896 TAMPINES STREET 81,SURFACE CAR PARK,ELECTRONIC PARKING,7AM-10.30PM,SUN & PH FR 7AM-10.30PM,NO,0,0.0,N,1.348714432,103.9316872
549,TB1,BLK 1/2/3/4/6 TELOK BLANGAH CRES,SURFACE CAR PARK,ELECTRONIC PARKING,7AM-10.30PM,NO,NO,0,4.5,N,1.2783806359999998,103.818525
550,TB14,BLK 113/114 DEPOT ROAD,SURFACE CAR PARK,ELECTRONIC PARKING,WHOLE DAY,SUN & PH FR 7AM-10.30PM,YES,0,4.5,N,1.281825212,103.8073453
551,TB2,BLK 8-10 TELOK BLANGAH CRES,SURFACE CAR PARK,ELECTRONIC PARKING,7AM-10.30PM,NO,NO,0,0.0,N,1.277570075,103.81934059999999
552,TB3,BLK 12/22 TELOK BLANGAH CRES,SURFACE CAR PARK,ELECTRONIC PARKING,WHOLE DAY,NO,YES,0,0.0,N,1.2768391829999999,103.8194677
553,TB9,BLK 32/35 TELOK BLANGAH RISE,SURFACE CAR PARK,ELECTRONIC PARKING,WHOLE DAY,SUN & PH FR 7AM-10.30PM,YES,0,5.4,N,1.273288998,103.8222334
554,TBC3,BLK 3A TELOK BLANGAH CRESCENT,MULTI-STOREY CAR PARK,ELECTRONIC PARKING,WHOLE DAY,SUN & PH FR 7AM-10.30PM,YES,8,2.15,N,1.278973025,103.8176008
555,TBM2,BLK 73A TELOK BLANGAH STREET 32,MULTI-STOREY CAR PARK,ELECTRONIC PARKING,WHOLE DAY,SUN & PH FR 7AM-10.30PM,YES,4,2.15,N,1.275304365,103.8092233
556,TBM3,BLK 78A TELOK BLANGAH STREET 32,MULTI-STOREY CAR PARK,ELECTRONIC PARKING,WHOLE DAY,SUN & PH FR 7AM-10.30PM,YES,14,2.15,N,1.273374336,103.8089728
557,TBM4,BLK 88A TELOK BLANGAH HEIGHTS,MULTI-STOREY CAR PARK,ELECTRONIC PARKING,WHOLE DAY,SUN & PH FR 7AM-10.30PM,YES,12,2.15,N,1.277305538,103.8078117
558,TBMT,BLK 80 TELOK BLANGAH ST 31,MULTI-STOREY CAR PARK,ELECTRONIC PARKING,7AM-10.30PM,NO,NO,5,2.15,N,1.273796254,103.80690129999999
559,TE14,BLK 140/142 JALAN BUKIT MERAH,SURFACE CAR PARK,ELECTRONIC PARKING,7AM-10.30PM,SUN & PH FR 7AM-10.30PM,NO,0,4.5,N,1.276980582,103.82885470000001
560,TE2,BLK 105-107 JALAN BUKIT MERAH,SURFACE CAR PARK,ELECTRONIC PARKING,NO,SUN & PH FR 7AM-10.30PM,YES,0,4.5,N,1.279982297,103.82508
561,TE25,BLK 17/31/141/150 KAMPONG BAHRU ROAD,SURFACE CAR PARK,ELECTRONIC PARKING,7AM-10.30PM,SUN & PH FR 7AM-10.30PM,NO,0,4.5,N,1.2773716640000001,103.8307877
562,TE3,BLK 108/110/112 JALAN BUKIT MERAH,SURFACE CAR PARK,ELECTRONIC PARKING,7AM-10.30PM,SUN & PH FR 7AM-10.30PM,NO,0,4.5,N,1.279741392,103.8261416
563,TE4,BLK 132-138 JALAN BUKIT MERAH,SURFACE CAR PARK,ELECTRONIC PARKING,7AM-10.30PM,SUN & PH FR 7AM-10.30PM,NO,0,0.0,N,1.27836964,103.8278436
564,TG1,BLK 24 & 25 TEBAN GARDENS,SURFACE CAR PARK,ELECTRONIC PARKING,WHOLE DAY,SUN & PH FR 7AM-10.30PM,YES,0,0.0,N,1.323312993,103.7376345
565,TG2,BLK 49 TO 54 TEBAN GARDENS,SURFACE CAR PARK,ELECTRONIC PARKING,WHOLE DAY,SUN & PH FR 7AM-10.30PM,YES,0,3.8,N,1.321563395,103.73762140000001
566,TG3,BLK 30/31/46/48 TEBAN GARDENS,SURFACE CAR PARK,ELECTRONIC PARKING,WHOLE DAY,SUN & PH FR 7AM-10.30PM,YES,0,3.39,N,1.3206349929999999,103.73897740000001
567,TG6,"BLK 32, 39/41 TEBAN GARDENS",SURFACE CAR PARK,ELECTRONIC PARKING,WHOLE DAY,SUN & PH FR 7AM-10.30PM,YES,0,3.8,N,1.321825139,103.7410927
568,TG7,BLK 33/38/43/45 TEBAN GARDENS,SURFACE CAR PARK,ELECTRONIC PARKING,WHOLE DAY,SUN & PH FR 7AM-10.30PM,YES,0,3.5,N,1.320145363,103.74229100000001
569,TGM1,BLK 63A TEBAN GARDENS RD,MULTI-STOREY CAR PARK,ELECTRONIC PARKING,WHOLE DAY,SUN & PH FR 7AM-10.30PM,YES,12,2.15,N,1.32110993,103.7388752
570,TGM2,BLK 61 TEBAN GARDENS RD,MULTI-STOREY CAR PARK,ELECTRONIC PARKING,WHOLE DAY,SUN & PH FR 7AM-10.30PM,YES,9,2.1,N,1.3221450190000001,103.7382945
571,TGM3,BLK 22A TEBAN GARDENS RD,MULTI-STOREY CAR PARK,ELECTRONIC PARKING,WHOLE DAY,SUN & PH FR 7AM-10.30PM,YES,3,2.15,N,1.3232613290000002,103.7393284
572,TGML,BLK 64 AND 65 TEBAN GARDENS RD,SURFACE CAR PARK,ELECTRONIC PARKING,NO,NO,NO,0,0.0,N,1.321749687,103.73934150000001
573,TJ28,BLK 364 YUNG AN ROAD,MULTI-STOREY CAR PARK,ELECTRONIC PARKING,WHOLE DAY,SUN & PH FR 7AM-10.30PM,YES,11,1.9,N,1.337119757,103.7204589
574,TJ31,BLK 331A KANG CHING ROAD,MULTI-STOREY CAR PARK,ELECTRONIC PARKING,WHOLE DAY,SUN & PH FR 7AM-10.30PM,YES,11,2.15,N,1.33859457,103.7228702
575,TJ34,BLK 115A HO CHING ROAD,MULTI-STOREY CAR PARK,ELECTRONIC PARKING,WHOLE DAY,SUN & PH FR 7AM-10.30PM,YES,10,2.15,N,1.3339499320000001,103.7245092
576,TJ37,BLK 337 TAH CHING ROAD,MULTI-STOREY CAR PARK,ELECTRONIC PARKING,WHOLE DAY,SUN & PH FR 7AM-10.30PM,YES,12,2.15,N,1.338282534,103.7225283
577,TM25,BLK 497E TAMPINES STREET 45,MULTI-STOREY CAR PARK,ELECTRONIC PARKING,WHOLE DAY,NO,YES,2,2.0,N,1.3587147469999998,103.9584951
578,TM26,BLK 497K TAMPINES STREET 45,MULTI-STOREY CAR PARK,ELECTRONIC PARKING,WHOLE DAY,NO,YES,2,2.0,N,1.35982668,103.9596252
579,TM27,BLK 497L TAMPINES STREET 45,MULTI-STOREY CAR PARK,ELECTRONIC PARKING,WHOLE DAY,SUN & PH FR 7AM-10.30PM,YES,4,2.0,N,1.360653005,103.9598885
580,TM36,BLK 515 TAMPINES CTRL 7,MULTI-STOREY CAR PARK,ELECTRONIC PARKING,WHOLE DAY,NO,YES,4,2.15,N,1.3571629859999998,103.9390733
581,TM37,BLK 518 TAMPINES CTRL 7,MULTI-STOREY CAR PARK,ELECTRONIC PARKING,WHOLE DAY,NO,YES,4,2.15,N,1.3561768440000002,103.9386072
582,TM42,BLK 823A TAMPINES STREET 81,MULTI-STOREY CAR PARK,ELECTRONIC PARKING,WHOLE DAY,SUN & PH FR 7AM-10.30PM,YES,8,2.15,N,1.348936975,103.93350749999999
583,TM43,BLK 202A TAMPINES STREET 21,MULTI-STOREY CAR PARK,ELECTRONIC PARKING,WHOLE DAY,SUN & PH FR 7AM-10.30PM,YES,10,2.15,N,1.3533871780000002,103.9522347
584,TP10,BLK 68 LORONG 5 TOA PAYOH,SURFACE CAR PARK,ELECTRONIC PARKING,WHOLE DAY,SUN & PH FR 7AM-10.30PM,YES,0,2.15,N,1.3349161379999999,103.8535916
585,TP14,BLK 63/64 LORONG 5 TOA PAYOH,SURFACE CAR PARK,ELECTRONIC PARKING,WHOLE DAY,SUN & PH FR 7AM-10.30PM,YES,0,4.5,N,1.335888611,103.8524077
586,TP16,BLK 175/183 TO 185 TOA PAYOH TOWN CENTRE,SURFACE CAR PARK,ELECTRONIC PARKING,WHOLE DAY,SUN & PH FR 7AM-10.30PM,YES,0,9.99,N,1.333245746,103.8483162
587,TP17,BLK 177 TO 179 TOA PAYOH TOWN CENTRE,SURFACE CAR PARK,ELECTRONIC PARKING,WHOLE DAY,SUN & PH FR 7AM-10.30PM,YES,0,4.4,N,1.333773023,103.84859329999999
588,TP18,BLK 186/191 TO 193 TOA PAYOH TOWN CENTRE,SURFACE CAR PARK,ELECTRONIC PARKING,WHOLE DAY,SUN & PH FR 7AM-10.30PM,YES,0,4.5,N,1.332589321,103.85074449999999
589,TP2,BLK 85/A/B/C LORONG 4 TOA PAYOH,SURFACE CAR PARK,ELECTRONIC PARKING,WHOLE DAY,SUN & PH FR 7AM-10.30PM,YES,0,4.5,N,1.3361796320000001,103.8482415
590,TP27,BLK 125/126/131 LORONG 2 TOA PAYOH,SURFACE CAR PARK,ELECTRONIC PARKING,WHOLE DAY,SUN & PH FR 7AM-10.30PM,YES,0,4.5,N,1.337544128,103.8452676
591,TP31,BLK 109/111 TO 115 LORONG 1 TOA PAYOH,SURFACE CAR PARK,ELECTRONIC PARKING,WHOLE DAY,SUN & PH FR 7AM-10.30PM,YES,0,4.5,N,1.341101079,103.845871
592,TP36,BLK 43 TO 48 LORONG 5/6 TOA PAYOH,SURFACE CAR PARK,ELECTRONIC PARKING,7AM-10.30PM,SUN & PH FR 7AM-10.30PM,NO,0,4.5,N,1.336263105,103.85378859999999
593,TPM,BLK 1/6 TANJONG PAGAR MSCP,MULTI-STOREY CAR PARK,ELECTRONIC PARKING,WHOLE DAY,SUN & PH FR 7AM-10.30PM,YES,7,1.8,N,1.2754813999999999,103.8422974
594,TPM4,BLK 81C LORONG 4 TOA PAYOH,MULTI-STOREY CAR PARK,ELECTRONIC PARKING,WHOLE DAY,SUN & PH FR 7AM-10.30PM,YES,10,2.0,N,1.335754158,103.84934609999999
595,TPM5,BLK 84C LORONG 2 TOA PAYOH,MULTI-STOREY CAR PARK,ELECTRONIC PARKING,WHOLE DAY,SUN & PH FR 7AM-10.30PM,YES,10,2.0,N,1.335818685,103.84733990000001
596,TPM6,BLK 35A LORONG 5 TOA PAYOH,MULTI-STOREY CAR PARK,ELECTRONIC PARKING,WHOLE DAY,SUN & PH FR 7AM-10.30PM,YES,10,2.15,N,1.334759982,103.85462340000001
597,TPMG,BLK 128A LORONG 1 TOA PAYOH,MULTI-STOREY CAR PARK,ELECTRONIC PARKING,WHOLE DAY,SUN & PH FR 7AM-10.30PM,YES,5,2.15,N,1.33822914,103.8440355
598,TPMN,BLK 78B TOA PAYOH CENTRAL,MULTI-STOREY CAR PARK,ELECTRONIC PARKING,WHOLE DAY,NO,YES,7,2.15,N,1.3348930159999999,103.8485785
599,TPMP,BLK 138 LORONG 1A TOA PAYOH,MULTI-STOREY CAR PARK,ELECTRONIC PARKING,WHOLE DAY,NO,YES,13,2.15,N,1.336684166,103.84480140000001
600,TR1,BLK 102/107 TOWNER ROAD,SURFACE CAR PARK,ELECTRONIC PARKING,7AM-10.30PM,SUN & PH FR 7AM-10.30PM,NO,0,4.5,N,1.3197304029999999,103.86110959999999
601,TRS,BLK 14 KAMPONG ARANG ROAD,SURFACE CAR PARK,ELECTRONIC PARKING,WHOLE DAY,SUN & PH FR 7AM-10.30PM,YES,0,0.0,N,1.300649419,103.88347009999998
602,TW1,BLK 25/26 TECK WHYE LANE,SURFACE CAR PARK,ELECTRONIC PARKING,7AM-10.30PM,SUN & PH FR 7AM-10.30PM,NO,0,0.0,N,1.3776881490000001,103.75515920000001
603,TW2,BLK 15-20 TECK WHYE LANE,SURFACE CAR PARK,ELECTRONIC PARKING,WHOLE DAY,SUN & PH FR 7AM-10.30PM,YES,0,4.5,N,1.378749975,103.7544749
604,TW3,BLK 8/11 TECK WHYE LANE,SURFACE CAR PARK,ELECTRONIC PARKING,WHOLE DAY,SUN & PH FR 7AM-10.30PM,YES,0,0.0,N,1.380330069,103.75450500000001
605,TWM3,BLK 160A JALAN TECK WHYE,MULTI-STOREY CAR PARK,ELECTRONIC PARKING,WHOLE DAY,SUN & PH FR 7AM-10.30PM,YES,12,2.15,N,1.380388916,103.7573167
606,U1,BLK 101/110 BUKIT BATOK WEST AVE 6,SURFACE CAR PARK,ELECTRONIC PARKING,WHOLE DAY,SUN & PH FR 7AM-10.30PM,YES,0,4.5,N,1.348389703,103.74698149999999
607,U10,BLK 178/184 BUKIT BATOK WEST AVENUE 8,SURFACE CAR PARK,ELECTRONIC PARKING,WHOLE DAY,SUN & PH FR 7AM-10.30PM,YES,0,0.0,N,1.3458035419999999,103.7437242
608,U13,BLK 212/230 BUKIT BATOK STREET 21,SURFACE CAR PARK,ELECTRONIC PARKING,WHOLE DAY,SUN & PH FR 7AM-10.30PM,YES,0,4.5,N,1.347803447,103.7532223
609,U15,BLK 231/237 BUKIT BATOK EAST AVENUE 5,SURFACE CAR PARK,ELECTRONIC PARKING,WHOLE DAY,SUN & PH FR 7AM-10.30PM,YES,0,5.4,N,1.3488837,103.7554363
610,U17,BLK 242/253 BUKIT BATOK EAST AVE 2/5,SURFACE CAR PARK,ELECTRONIC PARKING,WHOLE DAY,SUN & PH FR 7AM-10.30PM,YES,0,5.4,N,1.350095966,103.75680559999999
611,U18,BLK 254/265 BUKIT BATOK EAST AVE 4,SURFACE CAR PARK,ELECTRONIC PARKING,WHOLE DAY,SUN & PH FR 7AM-10.30PM,YES,0,4.5,N,1.3510894119999999,103.7587334
612,U19,BLK 266/284 BUKIT BATOK EAST AVE 3/4,SURFACE CAR PARK,ELECTRONIC PARKING,WHOLE DAY,SUN & PH FR 1PM-10.30PM,YES,0,4.5,N,1.348502857,103.75832240000001
613,U2,BLK 111/132 BUKIT BATOK WEST AVE 6,SURFACE CAR PARK,ELECTRONIC PARKING,WHOLE DAY,SUN & PH FR 7AM-10.30PM,YES,0,9.99,N,1.349872484,103.7463093
614,U21,BLK 301/309 BUKIT BATOK STREET 31,SURFACE CAR PARK,ELECTRONIC PARKING,WHOLE DAY,SUN & PH FR 7AM-10.30PM,YES,0,5.4,N,1.3573554140000001,103.74858359999999
615,U22,BLK 310/323 BUKIT BATOK STREET 32/33,SURFACE CAR PARK,ELECTRONIC PARKING,WHOLE DAY,SUN & PH FR 7AM-10.30PM,YES,0,0.0,N,1.360764333,103.7465146
616,U23,BLK 407-426 BUKIT BATOK WEST AVE 2/4,SURFACE CAR PARK,ELECTRONIC PARKING,WHOLE DAY,SUN & PH FR 1PM-10.30PM,YES,0,0.0,N,1.363021193,103.7455653
617,U24,BLK 324/336 BUKIT BATOK STREET 32/33,SURFACE CAR PARK,ELECTRONIC PARKING,WHOLE DAY,SUN & PH FR 1PM-10.30PM,YES,0,4.5,N,1.36390798,103.7476453
618,U25,BLK 337-353/355-356 BUKIT BATOK ST 34,SURFACE CAR PARK,ELECTRONIC PARKING,WHOLE DAY,SUN & PH FR 7AM-10.30PM,YES,0,0.0,N,1.363105248,103.75001
619,U26,BLK 354/357-370 BUKIT BATOK ST 31,SURFACE CAR PARK,ELECTRONIC PARKING,WHOLE DAY,SUN & PH FR 7AM-10.30PM,YES,0,0.0,N,1.3605163409999999,103.7501314
620,U27,BLK 371-373 BUKIT BATOK ST 31,SURFACE CAR PARK,ELECTRONIC PARKING,WHOLE DAY,SUN & PH FR 7AM-10.30PM,YES,0,9.99,N,1.359593087,103.75106509999999
621,U28,BLK 374-376 BUKIT BATOK ST 31,SURFACE CAR PARK,ELECTRONIC PARKING,WHOLE DAY,SUN & PH FR 7AM-10.30PM,YES,0,9.99,N,1.35787574,103.7505612
622,U29,BLK 376 BUKIT BATOK MSCP,MULTI-STOREY CAR PARK,ELECTRONIC PARKING,WHOLE DAY,SUN & PH FR 7AM-10.30PM,YES,3,1.9,N,1.358592199,103.74929859999999
623,U3,BLK 133/139 BUKIT BATOK WEST AVENUE 6,SURFACE CAR PARK,ELECTRONIC PARKING,WHOLE DAY,SUN & PH FR 7AM-10.30PM,YES,0,4.5,N,1.351391957,103.74435159999999
624,U30,BLK 523-525 BUKIT BATOK STREET 52,SURFACE CAR PARK,ELECTRONIC PARKING,WHOLE DAY,SUN & PH FR 7AM-10.30PM,YES,0,0.0,N,1.356914376,103.7526952
625,U31,BLKS 526-534 BUKIT BATOK STREET 51,SURFACE CAR PARK,ELECTRONIC PARKING,WHOLE DAY,SUN & PH FR 7AM-10.30PM,YES,0,4.5,N,1.356913403,103.7510736
626,U32,BLKS 512-514 BUKIT BATOK STREET 52,SURFACE CAR PARK,ELECTRONIC PARKING,7AM-10.30PM,SUN & PH FR 7AM-10.30PM,NO,0,4.5,N,1.3541002340000001,103.75261400000001
627,U33,BLKS 535-542 BUKIT BATOK STREET 51/52,SURFACE CAR PARK,ELECTRONIC PARKING,WHOLE DAY,SUN & PH FR 7AM-10.30PM,YES,0,4.5,N,1.354978239,103.751307
628,U34,BLKS 501-511 BUKIT BATOK ST 52,SURFACE CAR PARK,ELECTRONIC PARKING,WHOLE DAY,SUN & PH FR 7AM-10.30PM,YES,0,4.5,N,1.351733686,103.7537032
629,U38,BLK 185/187 BUKIT BATOK WEST AVENUE 6,SURFACE CAR PARK,ELECTRONIC PARKING,7AM-10.30PM,SUN & PH FR 7AM-10.30PM,NO,0,0.0,N,1.346726093,103.7445771
630,U39,BLK 631 BUKIT BATOK CENTRAL,MULTI-STOREY CAR PARK,ELECTRONIC PARKING,WHOLE DAY,SUN & PH FR 7AM-10.30PM,YES,2,1.9,N,1.349759432,103.75098879999999
631,U4,BLK 140/143 BUKIT BATOK STREET 11,SURFACE CAR PARK,ELECTRONIC PARKING,WHOLE DAY,SUN & PH FR 1PM-10.30PM,YES,0,0.0,N,1.350653565,103.74322
632,U40,BLK 644A BUKIT BATOK CENTRAL,MULTI-STOREY CAR PARK,ELECTRONIC PARKING,WHOLE DAY,SUN & PH FR 7AM-10.30PM,YES,10,1.9,N,1.348632401,103.7513683
633,U41,BLK 632/644 BUKIT BATOK CENTRAL,SURFACE CAR PARK,ELECTRONIC PARKING,WHOLE DAY,SUN & PH FR 7AM-10.30PM,YES,0,4.0,N,1.3494845969999998,103.7520483
634,U43,BLK 404A BUKIT BATOK WEST AVENUE 7,MULTI-STOREY CAR PARK,ELECTRONIC PARKING,WHOLE DAY,SUN & PH FR 7AM-10.30PM,YES,10,1.9,N,1.3650831140000002,103.7459369
635,U45,BLK 285A BUKIT BATOK EAST AVE 3,MULTI-STOREY CAR PARK,ELECTRONIC PARKING,7AM-7PM,NO,NO,2,2.0,N,1.346918492,103.7578989
636,U46,BLK 297 - 299 BUKIT BATOK ST 22 BUKIT BATOK STREET 22,SURFACE CAR PARK,ELECTRONIC PARKING,7AM-10.30PM,SUN & PH FR 7AM-10.30PM,NO,0,0.0,N,1.344168211,103.74762690000001
637,U48,BLK 350 BUKIT BATOK STREET 32,SURFACE CAR PARK,ELECTRONIC PARKING,WHOLE DAY,NO,YES,0,0.0,N,1.361434319,103.74877059999999
638,U5,BLK 144/149 BUKIT BATOK WEST AVENUE 6,SURFACE CAR PARK,ELECTRONIC PARKING,WHOLE DAY,SUN & PH FR 1PM-10.30PM,YES,0,0.0,N,1.3501372409999999,103.74467790000001
639,U6,BLK 150/158 BUKIT BATOK STREET 11,SURFACE CAR PARK,ELECTRONIC PARKING,WHOLE DAY,SUN & PH FR 1PM-10.30PM,YES,0,9.99,N,1.3480295180000001,103.74410350000001
640,U9,BLK 169/177 BUKIT BATOK WEST AVENUE 8,SURFACE CAR PARK,ELECTRONIC PARKING,WHOLE DAY,SUN & PH FR 7AM-10.30PM,YES,0,4.5,N,1.345845573,103.74119259999999
641,UA2,BLK 3 TO 5 UPPER ALJUNIED LANE,SURFACE CAR PARK,ELECTRONIC PARKING,WHOLE DAY,SUN & PH FR 7AM-10.30PM,YES,0,4.5,N,1.33369096,103.87922879999999
642,UA3,BLK 10/11/19 TO 21 JOO SENG ROAD,SURFACE CAR PARK,ELECTRONIC PARKING,7AM-10.30PM,SUN & PH FR 7AM-10.30PM,NO,0,0.0,N,1.334654435,103.88062790000001
643,UA5,BLK 12 TO 18 JOO SENG ROAD,SURFACE CAR PARK,ELECTRONIC PARKING,7AM-10.30PM,NO,NO,0,5.4,N,1.336513363,103.8811821
644,UAM1,BLK 2A JOO SENG RD,MULTI-STOREY CAR PARK,ELECTRONIC PARKING,WHOLE DAY,SUN & PH FR 7AM-10.30PM,YES,12,2.15,N,1.3344978090000001,103.8792136
645,UBK2,BLK 11/15/18 UPPER BOON KENG,SURFACE CAR PARK,ELECTRONIC PARKING,WHOLE DAY,SUN & PH FR 7AM-10.30PM,YES,0,4.5,N,1.315597179,103.8713975
646,UBK4,BLK 19/20 UPPER BOON KENG,SURFACE CAR PARK,ELECTRONIC PARKING,WHOLE DAY,SUN & PH FR 7AM-10.30PM,YES,0,3.25,N,1.315287938,103.8740882
647,UBK5,BLK 38/39 UPPER BOON KENG,SURFACE CAR PARK,ELECTRONIC PARKING,WHOLE DAY,SUN & PH FR 7AM-10.30PM,YES,0,3.25,N,1.318535793,103.8739594
648,UBKM,BLK 13A UPPER BOON KENG ROAD,MULTI-STOREY CAR PARK,ELECTRONIC PARKING,WHOLE DAY,SUN & PH FR 7AM-10.30PM,YES,12,2.15,N,1.3147949859999999,103.8708117
649,W10,BLK 4/5 MARSILING ROAD,SURFACE CAR PARK,ELECTRONIC PARKING,WHOLE DAY,SUN & PH FR 7AM-10.30PM,YES,0,4.5,N,1.4393517930000002,103.77532020000001
650,W101,BLK 686 WOODLANDS DRIVE 73,MULTI-STOREY CAR PARK,ELECTRONIC PARKING,WHOLE DAY,SUN & PH FR 7AM-10.30PM,YES,5,2.15,N,1.4425443269999998,103.8057857
651,W102,BLK 687 WOODLANDS DRIVE 75,MULTI-STOREY CAR PARK,ELECTRONIC PARKING,WHOLE DAY,SUN & PH FR 7AM-10.30PM,YES,12,2.15,N,1.4412048069999999,103.8066166
652,W107,BLK 569A-569B CHAMPIONS WAY,SURFACE CAR PARK,ELECTRONIC PARKING,WHOLE DAY,NO,YES,0,4.5,N,1.429800753,103.789597
653,W13,BLK 201/206 MARSILING DRIVE,SURFACE CAR PARK,ELECTRONIC PARKING,WHOLE DAY,NO,YES,0,4.5,N,1.443537279,103.7748079
654,W14,BLK 210/218 MARSILING CRESCENT,SURFACE CAR PARK,ELECTRONIC PARKING,WHOLE DAY,NO,YES,0,0.0,N,1.447052216,103.77297469999999
655,W17,BLK 101-113 WOODLANDS ST 13,SURFACE CAR PARK,ELECTRONIC PARKING,WHOLE DAY,SUN & PH FR 7AM-10.30PM,YES,0,4.5,N,1.436681968,103.78164720000001
656,W18,BLK 114-133 MARSILING RISE,SURFACE CAR PARK,ELECTRONIC PARKING,WHOLE DAY,SUN & PH FR 7AM-10.30PM,YES,0,4.5,N,1.439042502,103.780443
657,W181,BLK 181 MARSILING ROAD,MULTI-STOREY CAR PARK,ELECTRONIC PARKING,WHOLE DAY,SUN & PH FR 7AM-10.30PM,YES,3,2.15,N,1.43965387,103.7792968
658,W19,BLK 134-143 MARSILING RD,SURFACE CAR PARK,ELECTRONIC PARKING,WHOLE DAY,SUN & PH FR 7AM-10.30PM,YES,0,4.5,N,1.437594552,103.7772083
659,W21,BLK 167-179 WOODLANDS ST 13,SURFACE CAR PARK,ELECTRONIC PARKING,7AM-10.30PM,SUN & PH FR 7AM-10.30PM,NO,0,4.5,N,1.4338041069999998,103.7770959
660,W23,BLK 336-350 WOODLANDS STREET 32,SURFACE CAR PARK,ELECTRONIC PARKING,WHOLE DAY,SUN & PH FR 7AM-10.30PM,YES,0,4.5,N,1.4322112519999999,103.7811257
661,W24,BLK 321-335 WOODLANDS STREET 32,SURFACE CAR PARK,ELECTRONIC PARKING,WHOLE DAY,SUN & PH FR 7AM-10.30PM,YES,0,4.5,N,1.430630659,103.77940459999999
662,W28,BLK 304/305 WOODLANDS ST 31,SURFACE CAR PARK,ELECTRONIC PARKING,7AM-10.30PM,NO,NO,0,4.5,N,1.43011733,103.7738571
663,W3,BLK 4A/6A WOODLANDS CENTRE ROAD,SURFACE CAR PARK,COUPON PARKING,WHOLE DAY,NO,YES,0,4.5,N,1.4406995,103.7695026
664,W30,BLK 305 WOODLANDS ST 31,MULTI-STOREY CAR PARK,ELECTRONIC PARKING,WHOLE DAY,NO,YES,3,2.0,N,1.4302902,103.7740683
665,W36,BLK 801-810 WOODLANDS STREET 81,SURFACE CAR PARK,ELECTRONIC PARKING,WHOLE DAY,SUN & PH FR 7AM-10.30PM,YES,0,4.5,N,1.4413783619999998,103.7864191
666,W37,BLK 816-821 WOODLANDS STREET 82,SURFACE CAR PARK,ELECTRONIC PARKING,7AM-10.30PM,SUN & PH FR 7AM-10.30PM,NO,0,4.5,N,1.441875323,103.7904322
667,W39,BLK 830-836 WOODLANDS STREET 83,SURFACE CAR PARK,ELECTRONIC PARKING,7AM-10.30PM,SUN & PH FR 7AM-10.30PM,NO,0,4.5,N,1.439900282,103.791228
668,W4,BLK 6/7 MARSILING DRIVE,SURFACE CAR PARK,ELECTRONIC PARKING,7AM-10.30PM,SUN & PH FR 7AM-10.30PM,NO,0,4.5,N,1.4424581490000001,103.77674609999998
669,W40,BLK 837-850 WOODLANDS STREET 82,SURFACE CAR PARK,ELECTRONIC PARKING,WHOLE DAY,SUN & PH FR 7AM-10.30PM,YES,0,4.5,N,1.441596281,103.79201590000001
670,W44,BLK 413A WOODLANDS STREET 41,MULTI-STOREY CAR PARK,ELECTRONIC PARKING,WHOLE DAY,SUN & PH FR 7AM-10.30PM,YES,10,2.0,N,1.427989855,103.77226390000001
671,W45,BLK 421A WOODLANDS STREET 41,MULTI-STOREY CAR PARK,ELECTRONIC PARKING,WHOLE DAY,SUN & PH FR 7AM-10.30PM,YES,10,2.0,N,1.427981404,103.7751618
672,W48,BLK 874A WOODLANDS STREET 81,MULTI-STOREY CAR PARK,ELECTRONIC PARKING,WHOLE DAY,SUN & PH FR 7AM-10.30PM,YES,10,2.0,N,1.443167899,103.789026
673,W49,BLK 839A WOODLANDS STREET 82,MULTI-STOREY CAR PARK,ELECTRONIC PARKING,WHOLE DAY,SUN & PH FR 7AM-10.30PM,YES,10,2.0,N,1.4429076809999999,103.7920282
674,W5,BLK 10/13 MARSILING LANE,SURFACE CAR PARK,ELECTRONIC PARKING,WHOLE DAY,SUN & PH FR 7AM-10.30PM,YES,0,4.5,N,1.440754097,103.7781943
675,W50,BLK 846A WOODLANDS AVENUE 4,MULTI-STOREY CAR PARK,ELECTRONIC PARKING,WHOLE DAY,SUN & PH FR 7AM-10.30PM,YES,10,2.0,N,1.442925618,103.7936948
676,W51,BLK 866A WOODLANDS STREET 83,MULTI-STOREY CAR PARK,ELECTRONIC PARKING,WHOLE DAY,SUN & PH FR 7AM-10.30PM,YES,10,2.0,N,1.442289975,103.7926353
677,W52,BLK 823A WOODLANDS STREET 82,MULTI-STOREY CAR PARK,ELECTRONIC PARKING,WHOLE DAY,SUN & PH FR 7AM-10.30PM,YES,11,2.0,N,1.4413983719999999,103.7894865
678,W54,BLK 824A WOODLANDS STREET 81,MULTI-STOREY CAR PARK,ELECTRONIC PARKING,WHOLE DAY,SUN & PH FR 7AM-10.30PM,YES,11,2.0,N,1.439418879,103.78907509999999
679,W57,BLK 892C WOODLANDS DRIVE 50,MULTI-STOREY CAR PARK,ELECTRONIC PARKING,WHOLE DAY,NO,YES,10,2.15,N,1.436782135,103.7894508
680,W58,BLK 895D WOODLANDS DRIVE 50,MULTI-STOREY CAR PARK,ELECTRONIC PARKING,WHOLE DAY,SUN & PH FR 7AM-10.30PM,YES,11,2.15,N,1.436050162,103.79225240000001
681,W5M,BLK 13A MARSILING LANE,MULTI-STOREY CAR PARK,ELECTRONIC PARKING,WHOLE DAY,SUN & PH FR 7AM-10.30PM,YES,8,2.15,N,1.441639404,103.77875340000001
682,W6,BLK 15/16 MARSILING LANE,SURFACE CAR PARK,ELECTRONIC PARKING,WHOLE DAY,SUN & PH FR 7AM-10.30PM,YES,0,4.0,N,1.4421024740000001,103.77795400000001
683,W64,BLK 605A WOODLANDS DRIVE 42,MULTI-STOREY CAR PARK,ELECTRONIC PARKING,WHOLE DAY,SUN & PH FR 7AM-10.30PM,YES,10,2.0,N,1.437895933,103.7970991
684,W7,BLK 17/21 MARSILING LANE,SURFACE CAR PARK,ELECTRONIC PARKING,WHOLE DAY,SUN & PH FR 1PM-10.30PM,YES,0,0.0,N,1.443136124,103.7776083
685,W780,BLK 780 WOODLANDS CRESCENT,MULTI-STOREY CAR PARK,ELECTRONIC PARKING,WHOLE DAY,SUN & PH FR 7AM-10.30PM,YES,13,2.15,N,1.448235185,103.8011012
686,WCB,BLK 261/262/264 WATERLOO BASEMENT CAR PARK,BASEMENT CAR PARK,ELECTRONIC PARKING,WHOLE DAY,NO,YES,1,1.9,Y,1.298808294,103.8519378
687,WDB1,BLK 104 WHAMPOA DRIVE,BASEMENT CAR PARK,ELECTRONIC PARKING,7AM-10.30PM,NO,NO,1,2.15,Y,1.320770033,103.8532442
